[{"title": "Battle of Verdun", "longitude": 5.421944444, "latitude": 49.208055555, "start_time": 19160221, "end_time": 19161218, "links": ["https://en.wikipedia.org/wiki/Battle_of_Verdun"]}, {"title": "Battle of Kursk", "longitude": 36.051389, "latitude": 51.501111, "start_time": 19430705, "end_time": 19430823, "links": ["https://en.wikipedia.org/wiki/Battle_of_Kursk"]}, {"title": "Battle of Alesia", "longitude": 4.50027778, "latitude": 47.53722222, "start_time": -509099, "end_time": -509099, "links": ["https://en.wikipedia.org/wiki/Battle_of_Alesia"]}, {"title": "Battle of Thermopylae", "longitude": 22.533333333, "latitude": 38.8, "start_time": -4789899, "end_time": -4789899, "links": ["https://en.wikipedia.org/wiki/Battle_of_Thermopylae"]}, {"title": "Battle of Nieuwpoort", "longitude": 2.738333333, "latitude": 51.155833333, "start_time": 16000702, "end_time": 16000702, "links": ["https://en.wikipedia.org/wiki/Battle_of_Nieuwpoort"]}, {"title": "Battle of Jarama", "longitude": -3.50403333, "latitude": 40.2179, "start_time": 19370206, "end_time": 19370227, "links": ["https://en.wikipedia.org/wiki/Battle_of_Jarama"]}, {"title": "Battle of White Mountain", "longitude": 14.319444444, "latitude": 50.078333333, "start_time": 16201108, "end_time": 16201108, "links": ["https://en.wikipedia.org/wiki/Battle_of_White_Mountain"]}, {"title": "Battle of Valmy", "longitude": 4.765555555, "latitude": 49.079444444, "start_time": 17920920, "end_time": 17920920, "links": ["https://en.wikipedia.org/wiki/Battle_of_Valmy"]}, {"title": "Battle of Bagradas", "longitude": 10.1659, "latitude": 36.7975, "start_time": -2539899, "end_time": -2539899, "links": ["https://en.wikipedia.org/wiki/Battle_of_Bagradas"]}, {"title": "Battle of Dorylaeum", "longitude": 30.5206, "latitude": 39.7767, "start_time": 10970707, "end_time": 10970707, "links": ["https://en.wikipedia.org/wiki/Battle_of_Dorylaeum_(1097)"]}, {"title": "Battle of the Ice", "longitude": 27.48333333, "latitude": 58.68333333, "start_time": 12420412, "end_time": 12420412, "links": ["https://en.wikipedia.org/wiki/Battle_on_the_Ice"]}, {"title": "Normandy landings", "longitude": -0.566944444, "latitude": 49.333333333, "start_time": 19440606, "end_time": 19440606, "links": ["https://en.wikipedia.org/wiki/Normandy_landings"]}, {"title": "Engagement at Lula Rugaro", "longitude": 35.87693024, "latitude": -7.73838997, "start_time": 18910817, "end_time": 18910817, "links": ["https://fr.wikipedia.org/wiki/Bataille_de_Lugalo"]}, {"title": "Battle of Krasnoi", "longitude": 31.43, "latitude": 54.56, "start_time": 18121115, "end_time": 18121118, "links": ["https://en.wikipedia.org/wiki/Battle_of_Krasnoi"]}, {"title": "Battle of Dandanaqan", "longitude": 61.345353, "latitude": 37.391933, "start_time": 10400529, "end_time": 10400529, "links": ["https://en.wikipedia.org/wiki/Battle_of_Dandanaqan"]}, {"title": "Battle of Surabaya", "longitude": 115.24861111, "latitude": -8.42305556, "start_time": 19451027, "end_time": 19451027, "links": ["https://en.wikipedia.org/wiki/Battle_of_Surabaya"]}, {"title": "Battle of Ongjin", "longitude": 129.816, "latitude": 41.7658, "start_time": 19500625, "end_time": 19500626, "links": ["https://en.wikipedia.org/wiki/Battle_of_Ongjin"]}, {"title": "Battle of Cr\u00e9cy", "longitude": 1.904, "latitude": 50.257, "start_time": 13460903, "end_time": 13460903, "links": ["https://en.wikipedia.org/wiki/Battle_of_Cr%C3%A9cy"]}, {"title": "Siege of Constantinople (717-718)", "longitude": 28.976018, "latitude": 41.01224, "start_time": 7170715, "end_time": 7180815, "links": ["https://en.wikipedia.org/wiki/Siege_of_Constantinople_(717%E2%80%93718)"]}, {"title": "Invasion of Normandy", "longitude": -0.566666666, "latitude": 49.333333333, "start_time": 19440606, "end_time": 19440701, "links": ["https://en.wikipedia.org/wiki/Invasion_of_Normandy"]}, {"title": "Battle of Dresden", "longitude": 13.733333333, "latitude": 51.033333333, "start_time": 18130826, "end_time": 18130827, "links": ["https://en.wikipedia.org/wiki/Battle_of_Dresden"]}, {"title": "First Battle of the Marne", "longitude": 3.383333333, "latitude": 49.016666666, "start_time": 19140905, "end_time": 19140912, "links": ["https://en.wikipedia.org/wiki/First_Battle_of_the_Marne"]}, {"title": "Battle of Adrianople", "longitude": 26.6, "latitude": 41.8, "start_time": 3780810, "end_time": 3780810, "links": ["https://en.wikipedia.org/wiki/Battle_of_Adrianople"]}, {"title": "Battle of Okinawa", "longitude": 128.0, "latitude": 26.5, "start_time": 19450401, "end_time": 19450622, "links": ["https://en.wikipedia.org/wiki/Battle_of_Okinawa"]}, {"title": "Battle of Villiers", "longitude": 2.51556, "latitude": 48.8172, "start_time": 18701130, "end_time": 18701130, "links": ["https://en.wikipedia.org/wiki/Battle_of_Villiers"]}, {"title": "Battle of Agincourt", "longitude": 2.141388888, "latitude": 50.463333333, "start_time": 14151103, "end_time": 14151103, "links": ["https://en.wikipedia.org/wiki/Battle_of_Agincourt"]}, {"title": "Battles of Khalkhin Gol", "longitude": 118.59, "latitude": 47.730277777, "start_time": 19390511, "end_time": 19390916, "links": ["https://en.wikipedia.org/wiki/Battles_of_Khalkhin_Gol"]}, {"title": "Battle of Tarawa", "longitude": 172.975555555, "latitude": 1.426944444, "start_time": 19431120, "end_time": 19431123, "links": ["https://en.wikipedia.org/wiki/Battle_of_Tarawa"]}, {"title": "Action at N\u00e9ry", "longitude": 2.77917, "latitude": 49.2822, "start_time": 19140901, "end_time": 19140901, "links": ["https://en.wikipedia.org/wiki/Affair_of_N%C3%A9ry"]}, {"title": "Battle of Sarikamish", "longitude": 42.573, "latitude": 40.3381, "start_time": 19141222, "end_time": 19150117, "links": ["https://en.wikipedia.org/wiki/Battle_of_Sarikamish"]}, {"title": "Race to the Sea", "longitude": 2.83333, "latitude": 49.5, "start_time": 19140913, "end_time": 19141130, "links": ["https://en.wikipedia.org/wiki/Race_to_the_Sea"]}, {"title": "Battle of Signal Hill", "longitude": -52.68194444, "latitude": 47.56972222, "start_time": 17620915, "end_time": 17620915, "links": ["https://en.wikipedia.org/wiki/Battle_of_Signal_Hill"]}, {"title": "Battle of Dornach", "longitude": 7.61666667, "latitude": 47.48333333, "start_time": 14990731, "end_time": 14990731, "links": ["https://en.wikipedia.org/wiki/Battle_of_Dornach"]}, {"title": "Battle of Schliengen", "longitude": 7.57722222, "latitude": 47.75555556, "start_time": 17961024, "end_time": 17961024, "links": ["https://en.wikipedia.org/wiki/Battle_of_Schliengen"]}, {"title": "Battle of the Sit River", "longitude": 37.85202, "latitude": 58.06853, "start_time": 12380311, "end_time": 12380311, "links": ["https://en.wikipedia.org/wiki/Battle_of_the_Sit_River"]}, {"title": "Battle of C\u0113sis", "longitude": 25.274722222, "latitude": 57.313055555, "start_time": 19190605, "end_time": 19190623, "links": ["https://en.wikipedia.org/wiki/Battle_of_C%C4%93sis_(1919)"]}, {"title": "Battle of Borodino", "longitude": 35.816666666, "latitude": 55.516666666, "start_time": 18120907, "end_time": 18120907, "links": ["https://en.wikipedia.org/wiki/Battle_of_Borodino"]}, {"title": "Battle of Stockach", "longitude": 7.57722222, "latitude": 47.75555556, "start_time": 17990325, "end_time": 17990325, "links": ["https://en.wikipedia.org/wiki/Battle_of_Stockach_(1799)"]}, {"title": "Battle of Shanghai", "longitude": 121.469, "latitude": 31.2323, "start_time": 19370813, "end_time": 19371126, "links": ["https://en.wikipedia.org/wiki/Battle_of_Shanghai"]}, {"title": "Battle of Le Bourget", "longitude": 2.42556, "latitude": 48.9353, "start_time": 18700927, "end_time": 18700930, "links": ["https://en.wikipedia.org/wiki/Battle_of_Le_Bourget"]}, {"title": "Battle of Long Tan", "longitude": 107.258888888, "latitude": 10.553888888, "start_time": 19660818, "end_time": 19660818, "links": ["https://en.wikipedia.org/wiki/Battle_of_Long_Tan"]}, {"title": "Battle of Lerida", "longitude": 0.63333333, "latitude": 41.61666667, "start_time": 16421007, "end_time": 16421007, "links": ["https://en.wikipedia.org/wiki/Battle_of_Lerida_(1642)"]}, {"title": "Battle of H\u00f6chst\u00e4dt", "longitude": 10.55, "latitude": 48.6, "start_time": 18000619, "end_time": 18000619, "links": ["https://en.wikipedia.org/wiki/Battle_of_H%C3%B6chst%C3%A4dt_(1800)"]}, {"title": "Battle of Elandslaagte", "longitude": 29.95, "latitude": -28.4, "start_time": 18991021, "end_time": 18991021, "links": ["https://en.wikipedia.org/wiki/Battle_of_Elandslaagte"]}, {"title": "Battle of Tolbiac", "longitude": 6.601111111, "latitude": 50.675277777, "start_time": 4960101, "end_time": 4960101, "links": ["https://en.wikipedia.org/wiki/Battle_of_Tolbiac"]}, {"title": "Battle of Estrelleta", "longitude": -71.7, "latitude": 18.88333333, "start_time": 18450917, "end_time": 18450917, "links": ["https://en.wikipedia.org/wiki/Battle_of_Estrelleta"]}, {"title": "First Battle of Dego", "longitude": 8.31667, "latitude": 44.45, "start_time": 17940921, "end_time": 17940921, "links": ["https://en.wikipedia.org/wiki/First_Battle_of_Dego"]}, {"title": "Uzbin Valley ambush", "longitude": 69.848888888, "latitude": 34.659166666, "start_time": 20080818, "end_time": 20080818, "links": ["https://en.wikipedia.org/wiki/Uzbin_Valley_ambush"]}, {"title": "Battle of Sedan", "longitude": 4.9425, "latitude": 49.7025, "start_time": 19400513, "end_time": 19400513, "links": ["https://en.wikipedia.org/wiki/Battle_of_Sedan_(1940)"]}, {"title": "Battle of Alba de Tormes", "longitude": -5.5, "latitude": 40.83333333, "start_time": 18091128, "end_time": 18091128, "links": ["https://en.wikipedia.org/wiki/Battle_of_Alba_de_Tormes"]}, {"title": "Battle of \u00c9vora", "longitude": -7.90861111, "latitude": 38.57138889, "start_time": 18080729, "end_time": 18080729, "links": ["https://en.wikipedia.org/wiki/Battle_of_%C3%89vora_(1808)"]}, {"title": "Battle of Medina de Rioseco", "longitude": -4.993611111, "latitude": 41.894166666, "start_time": 18080714, "end_time": 18080714, "links": ["https://en.wikipedia.org/wiki/Battle_of_Medina_de_Rioseco"]}, {"title": "Battle of Khe Sanh", "longitude": 106.728583333, "latitude": 16.655444444, "start_time": 19680121, "end_time": 19680408, "links": ["https://en.wikipedia.org/wiki/Battle_of_Khe_Sanh"]}, {"title": "Battle of Hamburger Hill", "longitude": 107.174722222, "latitude": 16.253055555, "start_time": 19690510, "end_time": 19690520, "links": ["https://en.wikipedia.org/wiki/Battle_of_Hamburger_Hill"]}, {"title": "Battle of Talana Hill", "longitude": 30.267777777, "latitude": -28.163888888, "start_time": 18991020, "end_time": 18991020, "links": ["https://en.wikipedia.org/wiki/Battle_of_Talana_Hill"]}, {"title": "Battle of Modder River", "longitude": 24.62638889, "latitude": -29.03916667, "start_time": 18991128, "end_time": 18991128, "links": ["https://en.wikipedia.org/wiki/Battle_of_Modder_River"]}, {"title": "Battle of Leipzig", "longitude": 12.64, "latitude": 51.25, "start_time": 18131016, "end_time": 18131019, "links": ["https://en.wikipedia.org/wiki/Battle_of_Leipzig"]}, {"title": "Battle of the Bulge", "longitude": 6.13724, "latitude": 50.6243, "start_time": 19441216, "end_time": 19450125, "links": ["https://en.wikipedia.org/wiki/Battle_of_the_Bulge"]}, {"title": "Battle of Moscow", "longitude": 37.63333333, "latitude": 55.75, "start_time": 19411002, "end_time": 19420107, "links": ["https://en.wikipedia.org/wiki/Battle_of_Moscow"]}, {"title": "Battle of the Somme", "longitude": 2.69742, "latitude": 50.0155, "start_time": 19160701, "end_time": 19161117, "links": ["https://en.wikipedia.org/wiki/Battle_of_the_Somme"]}, {"title": "Bitche during the siege of 1870-1871", "longitude": 7.42583, "latitude": 49.0525, "start_time": 18700808, "end_time": 18710326, "links": ["https://fr.wikipedia.org/wiki/Bitche_pendant_le_si%C3%A8ge_de_1870-1871"]}, {"title": "Siege of Antwerp", "longitude": 4.4, "latitude": 51.216666666, "start_time": 18321115, "end_time": 18321223, "links": ["https://en.wikipedia.org/wiki/Siege_of_Antwerp_(1832)"]}, {"title": "Battle of Marathon", "longitude": 23.978333333, "latitude": 38.118055555, "start_time": -4889093, "end_time": -4889093, "links": ["https://en.wikipedia.org/wiki/Battle_of_Marathon"]}, {"title": "Battle of Gettysburg", "longitude": -77.22487, "latitude": 39.81124, "start_time": 18630701, "end_time": 18630703, "links": ["https://en.wikipedia.org/wiki/Battle_of_Gettysburg"]}, {"title": "Battle of Grunwald", "longitude": 20.09444444, "latitude": 53.48333333, "start_time": 14100724, "end_time": 14100724, "links": ["https://en.wikipedia.org/wiki/Battle_of_Grunwald"]}, {"title": "Battle of Austerlitz", "longitude": 16.766666666, "latitude": 49.133333333, "start_time": 18051202, "end_time": 18051202, "links": ["https://en.wikipedia.org/wiki/Battle_of_Austerlitz"]}, {"title": "Battle of Haw's Shop", "longitude": -77.3118, "latitude": 37.676, "start_time": 18640528, "end_time": 18640528, "links": ["https://en.wikipedia.org/wiki/Battle_of_Haw%27s_Shop"]}, {"title": "Battle of K\u00f6se Da\u011f", "longitude": 39.55, "latitude": 40.25, "start_time": 12430703, "end_time": 12430703, "links": ["https://en.wikipedia.org/wiki/Battle_of_K%C3%B6se_Da%C4%9F"]}, {"title": "Battle of Yarmouk", "longitude": 35.954722222, "latitude": 32.814166666, "start_time": 6360815, "end_time": 6360820, "links": ["https://en.wikipedia.org/wiki/Battle_of_Yarmouk"]}, {"title": "Battle of Five Forks", "longitude": -77.622777777, "latitude": 37.139444444, "start_time": 18650401, "end_time": 18650401, "links": ["https://en.wikipedia.org/wiki/Battle_of_Five_Forks"]}, {"title": "Battle of Old Church", "longitude": -77.2209, "latitude": 37.6444, "start_time": 18640530, "end_time": 18640530, "links": ["https://en.wikipedia.org/wiki/Battle_of_Old_Church"]}, {"title": "Battle of Megiddo", "longitude": 34.883, "latitude": 32.4, "start_time": 19180919, "end_time": 19180925, "links": ["https://en.wikipedia.org/wiki/Battle_of_Megiddo_(1918)"]}, {"title": "Battle of Manzikert", "longitude": 42.539166666, "latitude": 39.144722222, "start_time": 10710826, "end_time": 10710826, "links": ["https://en.wikipedia.org/wiki/Battle_of_Manzikert"]}, {"title": "Battle of the Granicus", "longitude": 27.242222222, "latitude": 40.228055555, "start_time": -3329499, "end_time": -3329499, "links": ["https://en.wikipedia.org/wiki/Battle_of_the_Granicus"]}, {"title": "Battle of Almansa", "longitude": -1.093694444, "latitude": 38.874444444, "start_time": 17070425, "end_time": 17070425, "links": ["https://en.wikipedia.org/wiki/Battle_of_Almansa"]}, {"title": "Battle of Marston Moor", "longitude": -1.2619, "latitude": 53.9637, "start_time": 16440702, "end_time": 16440702, "links": ["https://en.wikipedia.org/wiki/Battle_of_Marston_Moor"]}, {"title": "Battle of Gazala", "longitude": 23.3575, "latitude": 32.145277777, "start_time": 19420526, "end_time": 19420621, "links": ["https://en.wikipedia.org/wiki/Battle_of_Gazala"]}, {"title": "Battle of Aachen", "longitude": 6.1, "latitude": 50.766666666, "start_time": 19441002, "end_time": 19441021, "links": ["https://en.wikipedia.org/wiki/Battle_of_Aachen"]}, {"title": "Battle of Kasserine Pass", "longitude": 8.7424, "latitude": 35.2596, "start_time": 19430219, "end_time": 19430225, "links": ["https://en.wikipedia.org/wiki/Battle_of_Kasserine_Pass"]}, {"title": "Battle of L\u00fctzen", "longitude": 12.1833, "latitude": 51.2167, "start_time": 18130502, "end_time": 18130502, "links": ["https://en.wikipedia.org/wiki/Battle_of_L%C3%BCtzen_(1813)"]}, {"title": "Battle of Pea Ridge", "longitude": -94.034694444, "latitude": 36.454388888, "start_time": 18620307, "end_time": 18620308, "links": ["https://en.wikipedia.org/wiki/Battle_of_Pea_Ridge"]}, {"title": "Battle of Issus", "longitude": 36.211109, "latitude": 36.837894, "start_time": -3318969, "end_time": -3318969, "links": ["https://en.wikipedia.org/wiki/Battle_of_Issus"]}, {"title": "Battle of Poitiers", "longitude": 0.4, "latitude": 46.53, "start_time": 13560917, "end_time": 13560917, "links": ["https://en.wikipedia.org/wiki/Battle_of_Poitiers"]}, {"title": "Dieppe Raid", "longitude": 1.083333333, "latitude": 49.933333333, "start_time": 19420819, "end_time": 19420819, "links": ["https://en.wikipedia.org/wiki/Dieppe_Raid"]}, {"title": "Battle of the Trebia", "longitude": 9.6, "latitude": 45.05, "start_time": -2168799, "end_time": -2168799, "links": ["https://en.wikipedia.org/wiki/Battle_of_the_Trebia"]}, {"title": "Battle of Marengo", "longitude": 8.683333333, "latitude": 44.883333333, "start_time": 18000614, "end_time": 18000614, "links": ["https://en.wikipedia.org/wiki/Battle_of_Marengo"]}, {"title": "Battle of Restigouche", "longitude": -66.72083333, "latitude": 48.00472222, "start_time": 17600708, "end_time": 17600708, "links": ["https://en.wikipedia.org/wiki/Battle_of_Restigouche"]}, {"title": "Battle of Oudenarde", "longitude": 3.6, "latitude": 50.83, "start_time": 17080711, "end_time": 17080711, "links": ["https://en.wikipedia.org/wiki/Battle_of_Oudenarde"]}, {"title": "Battle of Welfesholz", "longitude": 11.56666667, "latitude": 51.61666667, "start_time": 11150218, "end_time": 11150218, "links": ["https://en.wikipedia.org/wiki/Battle_of_Welfesholz"]}, {"title": "Battle of Nancy", "longitude": 6.18125, "latitude": 48.69527778, "start_time": 14770114, "end_time": 14770114, "links": ["https://en.wikipedia.org/wiki/Battle_of_Nancy"]}, {"title": "Battle of Malplaquet", "longitude": 3.836666666, "latitude": 50.319722222, "start_time": 17090911, "end_time": 17090911, "links": ["https://en.wikipedia.org/wiki/Battle_of_Malplaquet"]}, {"title": "Battle of Bruderholz", "longitude": 7.59482222, "latitude": 47.50756389, "start_time": 14990331, "end_time": 14990331, "links": ["https://en.wikipedia.org/wiki/Battle_of_Bruderholz"]}, {"title": "Battle of Poltava", "longitude": 34.568611111, "latitude": 49.574444444, "start_time": 17090708, "end_time": 17090708, "links": ["https://en.wikipedia.org/wiki/Battle_of_Poltava"]}, {"title": "Battle of Beroia", "longitude": 25.65, "latitude": 42.43333333, "start_time": 11220101, "end_time": 11220101, "links": ["https://en.wikipedia.org/wiki/Battle_of_Beroia"]}, {"title": "Battle of Tannenberg", "longitude": 20.134444444, "latitude": 53.495833333, "start_time": 19140823, "end_time": 19140830, "links": ["https://en.wikipedia.org/wiki/Battle_of_Tannenberg"]}, {"title": "Battle of Berlin", "longitude": 13.38333333, "latitude": 52.51666667, "start_time": 19450416, "end_time": 19450502, "links": ["https://en.wikipedia.org/wiki/Battle_of_Berlin"]}, {"title": "Bataille_de_Markusz%C3%B3w", "longitude": 22.256944444, "latitude": 51.375277777, "start_time": 17920726, "end_time": 17920726, "links": ["https://fr.wikipedia.org/wiki/Bataille_de_Markusz%C3%B3w"]}, {"title": "Bataille_de_Zelva", "longitude": 24.817, "latitude": 53.15, "start_time": 17920704, "end_time": 17920705, "links": ["https://fr.wikipedia.org/wiki/Bataille_de_Zelva"]}, {"title": "Battle of Gumbinnen", "longitude": 22.2, "latitude": 54.6, "start_time": 19140820, "end_time": 19140820, "links": ["https://en.wikipedia.org/wiki/Battle_of_Gumbinnen"]}, {"title": "Battle of Stallup\u00f6nen", "longitude": 22.573333333, "latitude": 54.630555555, "start_time": 19140817, "end_time": 19140817, "links": ["https://en.wikipedia.org/wiki/Battle_of_Stallup%C3%B6nen"]}, {"title": "Battle of the Pyramids", "longitude": 31.2, "latitude": 30.08333333, "start_time": 17980721, "end_time": 17980721, "links": ["https://en.wikipedia.org/wiki/Battle_of_the_Pyramids"]}, {"title": "Battle of Bunker Hill", "longitude": -71.060777777, "latitude": 42.376361111, "start_time": 17750617, "end_time": 17750617, "links": ["https://en.wikipedia.org/wiki/Battle_of_Bunker_Hill"]}, {"title": "Battle of Vila Velha", "longitude": -7.67, "latitude": 39.65, "start_time": 17621005, "end_time": 17621005, "links": ["https://en.wikipedia.org/wiki/Battle_of_Vila_Velha"]}, {"title": "Battle of Monte Cassino", "longitude": 13.813888888, "latitude": 41.49, "start_time": 19440117, "end_time": 19440519, "links": ["https://en.wikipedia.org/wiki/Battle_of_Monte_Cassino"]}, {"title": "Battle of Philippi", "longitude": 24.28638889, "latitude": 41.01305556, "start_time": -408999, "end_time": -408979, "links": ["https://en.wikipedia.org/wiki/Battle_of_Philippi"]}, {"title": "Battle of Montju\u00efc", "longitude": 2.15888889, "latitude": 41.36722222, "start_time": 16410126, "end_time": 16410126, "links": ["https://en.wikipedia.org/wiki/Battle_of_Montju%C3%AFc_(1641)"]}, {"title": "Battle of Eylau", "longitude": 20.633333333, "latitude": 54.4, "start_time": 18070207, "end_time": 18070208, "links": ["https://en.wikipedia.org/wiki/Battle_of_Eylau"]}, {"title": "Battle of Rheinfelden", "longitude": 7.8, "latitude": 47.55, "start_time": 16380228, "end_time": 16380302, "links": ["https://en.wikipedia.org/wiki/Battle_of_Rheinfelden"]}, {"title": "Battle of Domstadtl", "longitude": 17.4433333, "latitude": 49.7383333, "start_time": 17580630, "end_time": 17580630, "links": ["https://en.wikipedia.org/wiki/Battle_of_Domstadtl"]}, {"title": "Battle of Rocoux", "longitude": 5.546, "latitude": 50.6757, "start_time": 17461011, "end_time": 17461011, "links": ["https://en.wikipedia.org/wiki/Battle_of_Rocoux"]}, {"title": "Siege of Vyborg", "longitude": 28.7442, "latitude": 60.7092, "start_time": 17060101, "end_time": 17060101, "links": ["https://de.wikipedia.org/wiki/Belagerung_von_Wyborg_(1706)"]}, {"title": "Battle of Varna", "longitude": 27.883333333, "latitude": 43.216666666, "start_time": 14441110, "end_time": 14441110, "links": ["https://en.wikipedia.org/wiki/Battle_of_Varna"]}, {"title": "Battle of Smolensk", "longitude": 32.05, "latitude": 54.7833, "start_time": 19430807, "end_time": 19431002, "links": ["https://en.wikipedia.org/wiki/Battle_of_Smolensk_(1943)"]}, {"title": "Battle of San Francisco", "longitude": -69.95, "latitude": -19.66666667, "start_time": 18791119, "end_time": 18791119, "links": ["https://en.wikipedia.org/wiki/Battle_of_San_Francisco"]}, {"title": "Battle of Vitoria", "longitude": -2.683333333, "latitude": 42.85, "start_time": 18130621, "end_time": 18130621, "links": ["https://en.wikipedia.org/wiki/Battle_of_Vitoria"]}, {"title": "Battle of Penghu", "longitude": 119.53, "latitude": 23.39, "start_time": 16830101, "end_time": 16830101, "links": ["https://en.wikipedia.org/wiki/Battle_of_Penghu"]}, {"title": "Battle of Slivice", "longitude": 14.0472, "latitude": 49.6433, "start_time": 19450511, "end_time": 19450512, "links": ["https://en.wikipedia.org/wiki/Battle_of_Slivice"]}, {"title": "Battle of Chosin Reservoir", "longitude": 127.2, "latitude": 40.483, "start_time": 19501127, "end_time": 19501213, "links": ["https://en.wikipedia.org/wiki/Battle_of_Chosin_Reservoir"]}, {"title": "Battle of Lechaeum", "longitude": 22.884225, "latitude": 37.934142, "start_time": -3899899, "end_time": -3899899, "links": ["https://en.wikipedia.org/wiki/Battle_of_Lechaeum"]}, {"title": "Battle of Lena", "longitude": 13.83333333, "latitude": 58.23333333, "start_time": 12080131, "end_time": 12080131, "links": ["https://en.wikipedia.org/wiki/Battle_of_Lena"]}, {"title": "Battle of Agagia", "longitude": 25.9425, "latitude": 31.5439, "start_time": 19160226, "end_time": 19160226, "links": ["https://en.wikipedia.org/wiki/Action_of_Agagia"]}, {"title": "Siege of Baghdad", "longitude": 44.4333, "latitude": 33.3333, "start_time": 12580212, "end_time": 12580224, "links": ["https://en.wikipedia.org/wiki/Siege_of_Baghdad_(1258)"]}, {"title": "Battle of Hastings", "longitude": 0.4875, "latitude": 50.911944444, "start_time": 10661020, "end_time": 10661020, "links": ["https://en.wikipedia.org/wiki/Battle_of_Hastings"]}, {"title": "Battle of the Teutoburg Forest", "longitude": 8.129444444, "latitude": 52.408055555, "start_time": 90901, "end_time": 90901, "links": ["https://en.wikipedia.org/wiki/Battle_of_the_Teutoburg_Forest"]}, {"title": "Battle of the Plains of Abraham", "longitude": -71.215, "latitude": 46.803, "start_time": 17590913, "end_time": 17590913, "links": ["https://en.wikipedia.org/wiki/Battle_of_the_Plains_of_Abraham"]}, {"title": "Battle of Vigo Bay", "longitude": -8.745, "latitude": 42.25, "start_time": 17021022, "end_time": 17021022, "links": ["https://en.wikipedia.org/wiki/Battle_of_Vigo_Bay"]}, {"title": "Battle of Custoza", "longitude": 10.79583333, "latitude": 45.37888889, "start_time": 18660624, "end_time": 18660624, "links": ["https://en.wikipedia.org/wiki/Battle_of_Custoza_(1866)"]}, {"title": "Battle of Custoza", "longitude": 10.79583333, "latitude": 45.37888889, "start_time": 18480725, "end_time": 18480725, "links": ["https://en.wikipedia.org/wiki/Battle_of_Custoza_(1848)"]}, {"title": "Battle of Kulm", "longitude": 13.957036, "latitude": 50.712835, "start_time": 18130829, "end_time": 18130830, "links": ["https://en.wikipedia.org/wiki/Battle_of_Kulm"]}, {"title": "Battle of Waterloo", "longitude": 4.4, "latitude": 50.683333333, "start_time": 18150618, "end_time": 18150618, "links": ["https://en.wikipedia.org/wiki/Battle_of_Waterloo"]}, {"title": "Battle of Roli\u00e7a", "longitude": -9.18361, "latitude": 39.3136, "start_time": 18080817, "end_time": 18080817, "links": ["https://en.wikipedia.org/wiki/Battle_of_Roli%C3%A7a"]}, {"title": "Battle of Solferino", "longitude": 10.566388888, "latitude": 45.367222222, "start_time": 18590624, "end_time": 18590624, "links": ["https://en.wikipedia.org/wiki/Battle_of_Solferino"]}, {"title": "Battle of Blue Licks", "longitude": -83.994647222, "latitude": 38.428407833, "start_time": 17820819, "end_time": 17820819, "links": ["https://en.wikipedia.org/wiki/Battle_of_Blue_Licks"]}, {"title": "First Battle of Nanawa", "longitude": -59.72222222, "latitude": -23.45833333, "start_time": 19330120, "end_time": 19330126, "links": ["https://en.wikipedia.org/wiki/First_Battle_of_Nanawa"]}, {"title": "Siege of Acre", "longitude": 35.08333333, "latitude": 32.93333333, "start_time": 12910411, "end_time": 12910525, "links": ["https://en.wikipedia.org/wiki/Siege_of_Acre_(1291)"]}, {"title": "Battle of Jena-Auerstedt", "longitude": 11.575, "latitude": 50.95, "start_time": 18061014, "end_time": 18061014, "links": ["https://en.wikipedia.org/wiki/Battle_of_Jena%E2%80%93Auerstedt"]}, {"title": "Battle of Blenheim", "longitude": 10.633333333, "latitude": 48.633333333, "start_time": 17040813, "end_time": 17040813, "links": ["https://en.wikipedia.org/wiki/Battle_of_Blenheim"]}, {"title": "Battle of Stamford Bridge", "longitude": -0.903, "latitude": 53.989, "start_time": 10660925, "end_time": 10660925, "links": ["https://en.wikipedia.org/wiki/Battle_of_Stamford_Bridge"]}, {"title": "Battle of Plassey", "longitude": 88.25, "latitude": 23.8, "start_time": 17570623, "end_time": 17570623, "links": ["https://en.wikipedia.org/wiki/Battle_of_Plassey"]}, {"title": "Battle of \u00c9pehy", "longitude": 3.11667, "latitude": 50.0, "start_time": 19180918, "end_time": 19180918, "links": ["https://en.wikipedia.org/wiki/Battle_of_%C3%89pehy"]}, {"title": "Battle of Pharsalus", "longitude": 22.38333333, "latitude": 39.3, "start_time": -469193, "end_time": -469193, "links": ["https://en.wikipedia.org/wiki/Battle_of_Pharsalus"]}, {"title": "Battle of Crete", "longitude": 24.9167, "latitude": 35.2167, "start_time": 19410520, "end_time": 19410601, "links": ["https://en.wikipedia.org/wiki/Battle_of_Crete"]}, {"title": "Second Battle of El Alamein", "longitude": 28.95, "latitude": 30.833333333, "start_time": 19421023, "end_time": 19421111, "links": ["https://en.wikipedia.org/wiki/Second_Battle_of_El_Alamein"]}, {"title": "Battle of Sedan", "longitude": 4.944444444, "latitude": 49.7, "start_time": 18700901, "end_time": 18700901, "links": ["https://en.wikipedia.org/wiki/Battle_of_Sedan"]}, {"title": "Third Battle of Kharkov", "longitude": 36.316666666, "latitude": 49.966666666, "start_time": 19430219, "end_time": 19430315, "links": ["https://en.wikipedia.org/wiki/Third_Battle_of_Kharkov"]}, {"title": "Battle of Lissa", "longitude": 16.053333333, "latitude": 43.176388888, "start_time": 18660720, "end_time": 18660720, "links": ["https://en.wikipedia.org/wiki/Battle_of_Lissa_(1866)"]}, {"title": "Battle of Ulm", "longitude": 9.983333333, "latitude": 48.383333333, "start_time": 18051016, "end_time": 18051019, "links": ["https://en.wikipedia.org/wiki/Battle_of_Ulm"]}, {"title": "Battle of Zama", "longitude": 9.449166666, "latitude": 36.298888888, "start_time": -2008985, "end_time": -2008985, "links": ["https://en.wikipedia.org/wiki/Battle_of_Zama"]}, {"title": "Battle of Queenston Heights", "longitude": -79.05049, "latitude": 43.16192, "start_time": 18121013, "end_time": 18121013, "links": ["https://en.wikipedia.org/wiki/Battle_of_Queenston_Heights"]}, {"title": "Battle of N\u00f6rdlingen", "longitude": 10.492802, "latitude": 48.805026, "start_time": 16340906, "end_time": 16340906, "links": ["https://en.wikipedia.org/wiki/Battle_of_N%C3%B6rdlingen_(1634)"]}, {"title": "Battle of Leuthen", "longitude": 16.8, "latitude": 51.13333333, "start_time": 17571205, "end_time": 17571205, "links": ["https://en.wikipedia.org/wiki/Battle_of_Leuthen"]}, {"title": "Battle of Ap Bac", "longitude": 106.195277777, "latitude": 10.438333333, "start_time": 19630102, "end_time": 19630102, "links": ["https://en.wikipedia.org/wiki/Battle_of_Ap_Bac"]}, {"title": "Battle of Gergovia", "longitude": 3.125, "latitude": 45.708333333, "start_time": -509899, "end_time": -509899, "links": ["https://en.wikipedia.org/wiki/Battle_of_Gergovia"]}, {"title": "Battle of Monmouth", "longitude": -2.725, "latitude": 51.813, "start_time": 12331202, "end_time": 12331202, "links": ["https://en.wikipedia.org/wiki/Battle_of_Monmouth_(1233)"]}, {"title": "Battle of Ludford Bridge", "longitude": -2.718888888, "latitude": 52.36375, "start_time": 14591012, "end_time": 14591012, "links": ["https://en.wikipedia.org/wiki/Battle_of_Ludford_Bridge"]}, {"title": "Battle of Stalingrad", "longitude": 44.516666666, "latitude": 48.7, "start_time": 19420823, "end_time": 19430202, "links": ["https://en.wikipedia.org/wiki/Battle_of_Stalingrad"]}, {"title": "Battle of Coronel", "longitude": -73.813611111, "latitude": -36.983611111, "start_time": 19141101, "end_time": 19141101, "links": ["https://en.wikipedia.org/wiki/Battle_of_Coronel"]}, {"title": "Battle of Halbe", "longitude": 13.700833333, "latitude": 52.106666666, "start_time": 19450424, "end_time": 19450501, "links": ["https://en.wikipedia.org/wiki/Battle_of_Halbe"]}, {"title": "Battle of Beaugency", "longitude": 1.64917, "latitude": 46.7958, "start_time": 14290704, "end_time": 14290705, "links": ["https://en.wikipedia.org/wiki/Battle_of_Beaugency_(1429)"]}, {"title": "Battle of Benevento", "longitude": 14.7833, "latitude": 41.1333, "start_time": 12660226, "end_time": 12660226, "links": ["https://en.wikipedia.org/wiki/Battle_of_Benevento"]}, {"title": "Battle of Abancay", "longitude": -72.88333333, "latitude": -13.63333333, "start_time": 15370712, "end_time": 15370712, "links": ["https://en.wikipedia.org/wiki/Battle_of_Abancay"]}, {"title": "Battle of Lincoln", "longitude": -0.53861111, "latitude": 53.235, "start_time": 11410202, "end_time": 11410202, "links": ["https://en.wikipedia.org/wiki/Battle_of_Lincoln_(1141)"]}, {"title": "Battle of the Zab", "longitude": 43.343611111, "latitude": 35.991111111, "start_time": 7500125, "end_time": 7500125, "links": ["https://en.wikipedia.org/wiki/Battle_of_the_Zab"]}, {"title": "Battle of Singapore", "longitude": 103.81666667, "latitude": 1.36666667, "start_time": 19420208, "end_time": 19420215, "links": ["https://en.wikipedia.org/wiki/Battle_of_Singapore"]}, {"title": "Siege of Damascus", "longitude": 36.298333333, "latitude": 33.512222222, "start_time": 11480731, "end_time": 11480805, "links": ["https://en.wikipedia.org/wiki/Siege_of_Damascus_(1148)"]}, {"title": "Battle of Saragarhi", "longitude": 70.93333333, "latitude": 33.55, "start_time": 18970912, "end_time": 18970912, "links": ["https://en.wikipedia.org/wiki/Battle_of_Saragarhi"]}, {"title": "Battle of Kohima", "longitude": 94.103, "latitude": 25.668, "start_time": 19440404, "end_time": 19440622, "links": ["https://en.wikipedia.org/wiki/Battle_of_Kohima"]}, {"title": "Battle of Mukden", "longitude": 123.43333333, "latitude": 41.78333333, "start_time": 19050220, "end_time": 19050310, "links": ["https://en.wikipedia.org/wiki/Battle_of_Mukden"]}, {"title": "Battle of Hanko", "longitude": 22.96805556, "latitude": 59.82361111, "start_time": 19410622, "end_time": 19411202, "links": ["https://en.wikipedia.org/wiki/Battle_of_Hanko_(1941)"]}, {"title": "Battle of the Yalu River", "longitude": 123.126388888, "latitude": 39.213888888, "start_time": 18940917, "end_time": 18940917, "links": ["https://en.wikipedia.org/wiki/Battle_of_the_Yalu_River_(1894)"]}, {"title": "Battle of Alasay", "longitude": 69.7208, "latitude": 34.8958, "start_time": 20090314, "end_time": 20090323, "links": ["https://en.wikipedia.org/wiki/Battle_of_Alasay"]}, {"title": "Battle of Dara", "longitude": 40.955, "latitude": 37.18, "start_time": 5300101, "end_time": 5300101, "links": ["https://en.wikipedia.org/wiki/Battle_of_Dara"]}, {"title": "Battle of K\u00f6niggr\u00e4tz", "longitude": 15.83, "latitude": 50.21, "start_time": 18660703, "end_time": 18660703, "links": ["https://en.wikipedia.org/wiki/Battle_of_K%C3%B6niggr%C3%A4tz"]}, {"title": "Battle of the Milvian Bridge", "longitude": 12.466944444, "latitude": 41.935555555, "start_time": 3121029, "end_time": 3121029, "links": ["https://en.wikipedia.org/wiki/Battle_of_the_Milvian_Bridge"]}, {"title": "Battle of Isly", "longitude": -1.93, "latitude": 34.69, "start_time": 18440814, "end_time": 18440814, "links": ["https://en.wikipedia.org/wiki/Battle_of_Isly"]}, {"title": "Battle of Okehazama", "longitude": 136.996788888, "latitude": 35.050163888, "start_time": 15600622, "end_time": 15600622, "links": ["https://en.wikipedia.org/wiki/Battle_of_Okehazama"]}, {"title": "Battle of Lundy's Lane", "longitude": -79.095456, "latitude": 43.089152, "start_time": 18140725, "end_time": 18140725, "links": ["https://en.wikipedia.org/wiki/Battle_of_Lundy%27s_Lane"]}, {"title": "Battle of Beaver Dams", "longitude": -79.1854, "latitude": 43.1178, "start_time": 18130624, "end_time": 18130624, "links": ["https://en.wikipedia.org/wiki/Battle_of_Beaver_Dams"]}, {"title": "Operation Michael", "longitude": 3.28333, "latitude": 49.85, "start_time": 19180321, "end_time": 19180405, "links": ["https://en.wikipedia.org/wiki/Operation_Michael"]}, {"title": "Battle of Totopotomoy Creek", "longitude": -77.2987, "latitude": 37.634, "start_time": 18640528, "end_time": 18640530, "links": ["https://en.wikipedia.org/wiki/Battle_of_Totopotomoy_Creek"]}, {"title": "Battle of Worringen", "longitude": 6.887777777, "latitude": 51.0425, "start_time": 12880612, "end_time": 12880612, "links": ["https://en.wikipedia.org/wiki/Battle_of_Worringen"]}, {"title": "Battle of Loigny-Poupry", "longitude": 1.73389, "latitude": 48.1239, "start_time": 18701202, "end_time": 18701202, "links": ["https://en.wikipedia.org/wiki/Battle_of_Loigny%E2%80%93Poupry"]}, {"title": "Battle of Somosierra", "longitude": -3.58167, "latitude": 41.1325, "start_time": 18081130, "end_time": 18081130, "links": ["https://en.wikipedia.org/wiki/Battle_of_Somosierra"]}, {"title": "Battle of Narva", "longitude": 28.183333, "latitude": 59.366667, "start_time": 17001130, "end_time": 17001130, "links": ["https://en.wikipedia.org/wiki/Battle_of_Narva_(1700)"]}, {"title": "Battle of Firebase Anaconda", "longitude": 66.0, "latitude": 32.13333333, "start_time": 20070808, "end_time": 20070808, "links": ["https://en.wikipedia.org/wiki/Battle_of_Firebase_Anaconda"]}, {"title": "Battle of Grauholz", "longitude": 7.5, "latitude": 47.01666667, "start_time": 17980305, "end_time": 17980305, "links": ["https://en.wikipedia.org/wiki/Battle_of_Grauholz"]}, {"title": "Battle of Dupplin Moor", "longitude": -3.4, "latitude": 56.422, "start_time": 13320826, "end_time": 13320827, "links": ["https://en.wikipedia.org/wiki/Battle_of_Dupplin_Moor"]}, {"title": "Battle of Stanwix Station", "longitude": -113.39255, "latitude": 32.93352, "start_time": 18620330, "end_time": 18620330, "links": ["https://en.wikipedia.org/wiki/Battle_of_Stanwix_Station"]}, {"title": "Battle of Cromdale", "longitude": -3.48916667, "latitude": 57.33166667, "start_time": 16900430, "end_time": 16900501, "links": ["https://en.wikipedia.org/wiki/Battle_of_Cromdale"]}, {"title": "Battle of Legnica", "longitude": 16.222777777, "latitude": 51.145277777, "start_time": 12410416, "end_time": 12410416, "links": ["https://en.wikipedia.org/wiki/Battle_of_Legnica"]}, {"title": "Fall of Constantinople", "longitude": 28.9769, "latitude": 41.0167, "start_time": 14530415, "end_time": 14530529, "links": ["https://en.wikipedia.org/wiki/Fall_of_Constantinople"]}, {"title": "Battle of Kiev (1941)", "longitude": 30.5164, "latitude": 50.4536, "start_time": 19410807, "end_time": 19410926, "links": ["https://en.wikipedia.org/wiki/Battle_of_Kiev_(1941)"]}, {"title": "Battle of H\u00fcrtgen Forest", "longitude": 6.362777777, "latitude": 50.708611111, "start_time": 19440914, "end_time": 19441216, "links": ["https://en.wikipedia.org/wiki/Battle_of_H%C3%BCrtgen_Forest"]}, {"title": "Battle of Bosworth Field", "longitude": -1.410277777, "latitude": 52.591111111, "start_time": 14850909, "end_time": 14850909, "links": ["https://en.wikipedia.org/wiki/Battle_of_Bosworth_Field"]}, {"title": "Battle of Bannockburn", "longitude": -3.915, "latitude": 56.092, "start_time": 13140701, "end_time": 13140702, "links": ["https://en.wikipedia.org/wiki/Battle_of_Bannockburn"]}, {"title": "Battle of Tourcoing", "longitude": 3.1548, "latitude": 50.73235, "start_time": 17940518, "end_time": 17940518, "links": ["https://en.wikipedia.org/wiki/Battle_of_Tourcoing"]}, {"title": "First Battle of Auburn", "longitude": -77.7, "latitude": 38.7, "start_time": 18631013, "end_time": 18631013, "links": ["https://en.wikipedia.org/wiki/First_Battle_of_Auburn"]}, {"title": "Kholm Pocket", "longitude": 31.18333333, "latitude": 57.15, "start_time": 19420123, "end_time": 19420505, "links": ["https://en.wikipedia.org/wiki/Kholm_Pocket"]}, {"title": "Battle of Mine Run", "longitude": -77.8187, "latitude": 38.3379, "start_time": 18631127, "end_time": 18631202, "links": ["https://en.wikipedia.org/wiki/Battle_of_Mine_Run"]}, {"title": "Battle of Leyte Gulf", "longitude": 125.3556, "latitude": 10.3706, "start_time": 19441023, "end_time": 19441026, "links": ["https://en.wikipedia.org/wiki/Battle_of_Leyte_Gulf"]}, {"title": "Battle of the Bzura", "longitude": 19.3667, "latitude": 52.2333, "start_time": 19390909, "end_time": 19390919, "links": ["https://en.wikipedia.org/wiki/Battle_of_the_Bzura"]}, {"title": "Battle of Shrewsbury", "longitude": -2.7185, "latitude": 52.7475, "start_time": 14030721, "end_time": 14030721, "links": ["https://en.wikipedia.org/wiki/Battle_of_Shrewsbury"]}, {"title": "Siege of Vienna", "longitude": 16.3731, "latitude": 48.2083, "start_time": 15291017, "end_time": 15291104, "links": ["https://en.wikipedia.org/wiki/Siege_of_Vienna"]}, {"title": "Battle of Dunkirk", "longitude": 2.376819444, "latitude": 51.0343, "start_time": 19400526, "end_time": 19400604, "links": ["https://en.wikipedia.org/wiki/Battle_of_Dunkirk"]}, {"title": "Battle of Vimeiro", "longitude": -9.31667, "latitude": 39.175, "start_time": 18080820, "end_time": 18080820, "links": ["https://en.wikipedia.org/wiki/Battle_of_Vimeiro"]}, {"title": "Battle of Ankara", "longitude": 32.8667, "latitude": 39.8667, "start_time": 14020729, "end_time": 14020729, "links": ["https://en.wikipedia.org/wiki/Battle_of_Ankara"]}, {"title": "Battle of Nicopolis", "longitude": 24.895833333, "latitude": 43.705833333, "start_time": 13960925, "end_time": 13960925, "links": ["https://en.wikipedia.org/wiki/Battle_of_Nicopolis"]}, {"title": "Battle of the Hydaspes", "longitude": 73.638888888, "latitude": 32.827777777, "start_time": -3249499, "end_time": -3249499, "links": ["https://en.wikipedia.org/wiki/Battle_of_the_Hydaspes"]}, {"title": "Guadalcanal Campaign", "longitude": 160.0, "latitude": -9.416666666, "start_time": 19420807, "end_time": 19430209, "links": ["https://en.wikipedia.org/wiki/Guadalcanal_Campaign"]}, {"title": "Battle of Azaz", "longitude": 36.719484, "latitude": 36.178934, "start_time": 11250101, "end_time": 11250101, "links": ["https://en.wikipedia.org/wiki/Battle_of_Azaz_(1125)"]}, {"title": "Batalla del Monte de las Cruces", "longitude": -99.3164, "latitude": 19.3294, "start_time": 18101030, "end_time": 18101030, "links": ["https://en.wikipedia.org/wiki/Battle_of_Monte_de_las_Cruces"]}, {"title": "Siege of Malta", "longitude": 14.516666666, "latitude": 35.883333333, "start_time": 15650607, "end_time": 15651001, "links": ["https://en.wikipedia.org/wiki/Great_Siege_of_Malta"]}, {"title": "Battle of Turaida", "longitude": 9.716353, "latitude": 54.336668, "start_time": 12980608, "end_time": 12980608, "links": ["https://en.wikipedia.org/wiki/Battle_of_Turaida"]}, {"title": "Battle of Pell's Point", "longitude": -73.81048, "latitude": 40.86617, "start_time": 17761018, "end_time": 17761018, "links": ["https://en.wikipedia.org/wiki/Battle_of_Pell%27s_Point"]}, {"title": "Invasion of Martinique", "longitude": -61.0, "latitude": 14.67, "start_time": 17620105, "end_time": 17620212, "links": ["https://en.wikipedia.org/wiki/Invasion_of_Martinique_(1762)"]}, {"title": "Battle of Pavia", "longitude": 9.15, "latitude": 45.1833, "start_time": 15250224, "end_time": 15250224, "links": ["https://en.wikipedia.org/wiki/Battle_of_Pavia"]}, {"title": "Battle of Le Mans", "longitude": 0.196944, "latitude": 48.0042, "start_time": 18710110, "end_time": 18710112, "links": ["https://en.wikipedia.org/wiki/Battle_of_Le_Mans"]}, {"title": "Battle of Denain", "longitude": 3.395833333, "latitude": 50.329444444, "start_time": 17120724, "end_time": 17120724, "links": ["https://en.wikipedia.org/wiki/Battle_of_Denain"]}, {"title": "Battle of New Orleans", "longitude": -89.98592, "latitude": 29.94073, "start_time": 18141224, "end_time": 18150108, "links": ["https://en.wikipedia.org/wiki/Battle_of_New_Orleans"]}, {"title": "Battle of the Golden Spurs", "longitude": 3.276, "latitude": 50.829, "start_time": 13020719, "end_time": 13020719, "links": ["https://en.wikipedia.org/wiki/Battle_of_the_Golden_Spurs"]}, {"title": "Battle of the River Berre", "longitude": 2.92416667, "latitude": 43.05055556, "start_time": 7370101, "end_time": 7370101, "links": ["https://en.wikipedia.org/wiki/Battle_of_the_River_Berre"]}, {"title": "Battle of Orchomenus", "longitude": 22.98, "latitude": 38.48, "start_time": -849899, "end_time": -849899, "links": ["https://en.wikipedia.org/wiki/Battle_of_Orchomenus"]}, {"title": "Battle of Bapheus", "longitude": 29.9167, "latitude": 40.7667, "start_time": 13020727, "end_time": 13020727, "links": ["https://en.wikipedia.org/wiki/Battle_of_Bapheus"]}, {"title": "Battle of Dunbar", "longitude": -2.52119, "latitude": 55.97692, "start_time": 12960427, "end_time": 12960427, "links": ["https://en.wikipedia.org/wiki/Battle_of_Dunbar_(1296)"]}, {"title": "Schlacht_bei_Mehr", "longitude": 6.50194444, "latitude": 51.73555556, "start_time": 17580805, "end_time": 17580805, "links": ["https://de.wikipedia.org/wiki/Schlacht_bei_Mehr"]}, {"title": "Battle of Br\u00e9mule", "longitude": 1.4058, "latitude": 49.3433, "start_time": 11190827, "end_time": 11190827, "links": ["https://en.wikipedia.org/wiki/Battle_of_Br%C3%A9mule"]}, {"title": "Battle of Simancas", "longitude": -4.81666667, "latitude": 41.6, "start_time": 9390724, "end_time": 9390724, "links": ["https://en.wikipedia.org/wiki/Battle_of_Simancas"]}, {"title": "Battle of Moore's Creek Bridge", "longitude": -78.109612, "latitude": 34.457455, "start_time": 17760227, "end_time": 17760227, "links": ["https://en.wikipedia.org/wiki/Battle_of_Moore%27s_Creek_Bridge"]}, {"title": "Battle of Mobile Bay", "longitude": -88.05301, "latitude": 30.24097, "start_time": 18640823, "end_time": 18640823, "links": ["https://en.wikipedia.org/wiki/Battle_of_Mobile_Bay"]}, {"title": "Battle of Tampere", "longitude": 23.75, "latitude": 61.5, "start_time": 19180308, "end_time": 19180406, "links": ["https://en.wikipedia.org/wiki/Battle_of_Tampere"]}, {"title": "First Battle of Kernstown", "longitude": -78.2058, "latitude": 39.1431, "start_time": 18620323, "end_time": 18620323, "links": ["https://en.wikipedia.org/wiki/First_Battle_of_Kernstown"]}, {"title": "Battle of Givenchy", "longitude": 2.75861, "latitude": 50.5294, "start_time": 19141222, "end_time": 19141222, "links": ["https://en.wikipedia.org/wiki/Winter_operations_1914%E2%80%931915"]}, {"title": "Adlertag", "longitude": 13.477283, "latitude": 51.165413, "start_time": 19400813, "end_time": 19400813, "links": ["https://en.wikipedia.org/wiki/Adlertag"]}, {"title": "First Battle of Newbury", "longitude": -1.344594, "latitude": 51.389836, "start_time": 16430920, "end_time": 16430920, "links": ["https://en.wikipedia.org/wiki/First_Battle_of_Newbury"]}, {"title": "Battle of Brunete", "longitude": -3.98333, "latitude": 40.4, "start_time": 19370706, "end_time": 19370706, "links": ["https://en.wikipedia.org/wiki/Battle_of_Brunete"]}, {"title": "Siege of Pensacola", "longitude": -87.29722222, "latitude": 30.34777778, "start_time": 17810509, "end_time": 17810509, "links": ["https://en.wikipedia.org/wiki/Siege_of_Pensacola"]}, {"title": "Battle of M\u00e9rida", "longitude": -6.33333, "latitude": 38.9, "start_time": 19360810, "end_time": 19360810, "links": ["https://en.wikipedia.org/wiki/Battle_of_M%C3%A9rida"]}, {"title": "Battle of Famaill\u00e1", "longitude": -65.41027778, "latitude": -27.03416667, "start_time": 18410919, "end_time": 18410919, "links": ["https://en.wikipedia.org/wiki/Battle_of_Famaill%C3%A1"]}, {"title": "Majuba Hill", "longitude": 29.8613, "latitude": -27.4616, "start_time": 18810227, "end_time": 18810227, "links": ["https://en.wikipedia.org/wiki/Battle_of_Majuba_Hill"]}, {"title": "Battle of Halmyros", "longitude": 22.8401, "latitude": 39.1587, "start_time": 13110323, "end_time": 13110323, "links": ["https://en.wikipedia.org/wiki/Battle_of_Halmyros"]}, {"title": "Battle of Ratisbon", "longitude": 12.1, "latitude": 49.016666666, "start_time": 18090423, "end_time": 18090423, "links": ["https://en.wikipedia.org/wiki/Battle_of_Ratisbon"]}, {"title": "Battle of Genoa", "longitude": 8.93333, "latitude": 44.4067, "start_time": 17950314, "end_time": 17950314, "links": ["https://en.wikipedia.org/wiki/Battle_of_Genoa_(1795)"]}, {"title": "Battle of Gro\u00dfbeeren", "longitude": 13.3, "latitude": 52.35, "start_time": 18130904, "end_time": 18130904, "links": ["https://en.wikipedia.org/wiki/Battle_of_Gro%C3%9Fbeeren"]}, {"title": "Battle of Gaza", "longitude": 34.45, "latitude": 31.516667, "start_time": 20070610, "end_time": 20070615, "links": ["https://en.wikipedia.org/wiki/Battle_of_Gaza_(2007)"]}, {"title": "Battle of Copenhagen", "longitude": 12.566666666, "latitude": 55.666666666, "start_time": 18070816, "end_time": 18070905, "links": ["https://en.wikipedia.org/wiki/Battle_of_Copenhagen_(1807)"]}, {"title": "Battle of Las Cumbres", "longitude": -97.316666666, "latitude": 18.716666666, "start_time": 18620428, "end_time": 18620428, "links": ["https://en.wikipedia.org/wiki/Battle_of_Las_Cumbres"]}, {"title": "Battle of Oak Grove", "longitude": -77.3292, "latitude": 37.5154, "start_time": 18620625, "end_time": 18620625, "links": ["https://en.wikipedia.org/wiki/Battle_of_Oak_Grove"]}, {"title": "Battle of A Shau", "longitude": 107.213, "latitude": 16.2593, "start_time": 19660309, "end_time": 19660310, "links": ["https://en.wikipedia.org/wiki/Battle_of_A_Sau"]}, {"title": "Battle of Ticinus", "longitude": 8.866666666, "latitude": 45.25, "start_time": -2168899, "end_time": -2168899, "links": ["https://en.wikipedia.org/wiki/Battle_of_Ticinus"]}, {"title": "Battle of Mount Erice", "longitude": 13.35, "latitude": 38.1667, "start_time": -2519899, "end_time": -2489899, "links": ["https://es.wikipedia.org/wiki/Batalla_del_Monte_Ercte"]}, {"title": "Battle of H\u00e9ricourt", "longitude": 6.76667, "latitude": 47.5833, "start_time": 14741113, "end_time": 14741113, "links": ["https://en.wikipedia.org/wiki/Battle_of_H%C3%A9ricourt"]}, {"title": "Battle of Saint-Omer", "longitude": 2.26167, "latitude": 50.7461, "start_time": 13400803, "end_time": 13400803, "links": ["https://en.wikipedia.org/wiki/Battle_of_Saint-Omer"]}, {"title": "Battle of Mortemer", "longitude": 1.551111111, "latitude": 49.751666666, "start_time": 10540101, "end_time": 10540101, "links": ["https://en.wikipedia.org/wiki/Battle_of_Mortemer"]}, {"title": "Battle of Kerch Strait", "longitude": 37.0, "latitude": 44.9, "start_time": 17900101, "end_time": 17900101, "links": ["https://en.wikipedia.org/wiki/Battle_of_Kerch_Strait_(1790)"]}, {"title": "Invasion of Dominica", "longitude": -61.383, "latitude": 15.3, "start_time": 17610601, "end_time": 17610601, "links": ["https://en.wikipedia.org/wiki/Invasion_of_Dominica_(1761)"]}, {"title": "Battle of Langensalza", "longitude": 10.6468, "latitude": 51.108, "start_time": 17610215, "end_time": 17610215, "links": ["https://en.wikipedia.org/wiki/Battle_of_Langensalza_(1761)"]}, {"title": "Battle of Nauheim", "longitude": 8.4633, "latitude": 49.9508, "start_time": 17620830, "end_time": 17620830, "links": ["https://en.wikipedia.org/wiki/Battle_of_Nauheim"]}, {"title": "Battle of Cepeda", "longitude": -60.58305556, "latitude": -33.38138889, "start_time": 18591023, "end_time": 18591023, "links": ["https://en.wikipedia.org/wiki/Battle_of_Cepeda_(1859)"]}, {"title": "Battle of Phaleron", "longitude": 23.7, "latitude": 37.933333333, "start_time": 18270506, "end_time": 18270506, "links": ["https://en.wikipedia.org/wiki/Battle_of_Phaleron"]}, {"title": "Battle of Arachova", "longitude": 22.583333333, "latitude": 38.483333333, "start_time": 18261118, "end_time": 18261124, "links": ["https://en.wikipedia.org/wiki/Battle_of_Arachova"]}, {"title": "First Battle of al-Faw", "longitude": 48.4725, "latitude": 29.975277777, "start_time": 19860211, "end_time": 19860211, "links": ["https://en.wikipedia.org/wiki/First_Battle_of_al-Faw"]}, {"title": "Battle of Tippecanoe", "longitude": -86.838333, "latitude": 40.51, "start_time": 18111107, "end_time": 18111107, "links": ["https://en.wikipedia.org/wiki/Battle_of_Tippecanoe"]}, {"title": "Battle of Trzciana", "longitude": 19.0631, "latitude": 53.8005, "start_time": 16290625, "end_time": 16290625, "links": ["https://en.wikipedia.org/wiki/Battle_of_Trzciana"]}, {"title": "Second Battle of Krithia", "longitude": 26.203888888, "latitude": 40.078888888, "start_time": 19150506, "end_time": 19150508, "links": ["https://en.wikipedia.org/wiki/Second_Battle_of_Krithia"]}, {"title": "Battle of Herdonia (210 BC)", "longitude": 15.6333333, "latitude": 41.3166667, "start_time": -2089899, "end_time": -2089899, "links": ["https://en.wikipedia.org/wiki/Battle_of_Herdonia_(210_BC)"]}, {"title": "Battle of Nola (215 BC)", "longitude": 14.5275, "latitude": 40.9261111, "start_time": -2139899, "end_time": -2139899, "links": ["https://en.wikipedia.org/wiki/Battle_of_Nola_(215_BC)"]}, {"title": "Zweite_Schlacht_von_Tarentum", "longitude": 17.2333333, "latitude": 40.4666667, "start_time": -2079899, "end_time": -2079899, "links": ["https://de.wikipedia.org/wiki/Zweite_Schlacht_von_Tarentum"]}, {"title": "Second Battle of St Albans", "longitude": -0.33611111, "latitude": 51.755, "start_time": 14610226, "end_time": 14610226, "links": ["https://en.wikipedia.org/wiki/Second_Battle_of_St_Albans"]}, {"title": "Battle of Adwa", "longitude": 38.973333333, "latitude": 14.018888888, "start_time": 18960301, "end_time": 18960301, "links": ["https://en.wikipedia.org/wiki/Battle_of_Adwa"]}, {"title": "Battle of Salzbach", "longitude": 8.09166667, "latitude": 48.63833333, "start_time": 16750727, "end_time": 16750727, "links": ["https://en.wikipedia.org/wiki/Battle_of_Salzbach"]}, {"title": "Battle of Cabez\u00f3n", "longitude": -4.64639, "latitude": 41.7333, "start_time": 18080612, "end_time": 18080612, "links": ["https://en.wikipedia.org/wiki/Battle_of_Cabez%C3%B3n"]}, {"title": "Battle of Kulikovo", "longitude": 38.6535, "latitude": 53.6525, "start_time": 13800916, "end_time": 13800916, "links": ["https://en.wikipedia.org/wiki/Battle_of_Kulikovo"]}, {"title": "Battle of Kelja", "longitude": 30.245, "latitude": 60.67472222, "start_time": 19391225, "end_time": 19391227, "links": ["https://en.wikipedia.org/wiki/Battle_of_Kelja"]}, {"title": "Battle of Chinsurah", "longitude": 88.39, "latitude": 22.9, "start_time": 17591125, "end_time": 17591125, "links": ["https://en.wikipedia.org/wiki/Battle_of_Chinsurah"]}, {"title": "Battle of Chandannagar", "longitude": 88.38, "latitude": 22.855886, "start_time": 17570323, "end_time": 17570323, "links": ["https://en.wikipedia.org/wiki/Battle_of_Chandannagar"]}, {"title": "Battle of the Little Bighorn", "longitude": -107.428888888, "latitude": 45.565, "start_time": 18760625, "end_time": 18760625, "links": ["https://en.wikipedia.org/wiki/Battle_of_the_Little_Bighorn"]}, {"title": "Battle of Carrhae", "longitude": 39.033333, "latitude": 36.866667, "start_time": -519491, "end_time": -519491, "links": ["https://en.wikipedia.org/wiki/Battle_of_Carrhae"]}, {"title": "Battle of Lake Trasimene", "longitude": 12.117777777, "latitude": 43.2025, "start_time": -2159383, "end_time": -2159383, "links": ["https://en.wikipedia.org/wiki/Battle_of_Lake_Trasimene"]}, {"title": "Battle of Belmont", "longitude": 24.36666667, "latitude": -29.41666667, "start_time": 18991123, "end_time": 18991123, "links": ["https://en.wikipedia.org/wiki/Battle_of_Belmont_(1899)"]}, {"title": "Qana_airstrike", "longitude": 35.3004, "latitude": 33.2095, "start_time": 20060730, "end_time": 20060730, "links": ["https://en.wikipedia.org/wiki/Qana_airstrike"]}, {"title": "Battle of Kandahar", "longitude": 65.71666667, "latitude": 31.61666667, "start_time": 18800901, "end_time": 18800901, "links": ["https://en.wikipedia.org/wiki/Battle_of_Kandahar"]}, {"title": "Battle of Castricum", "longitude": 4.666666666, "latitude": 52.55, "start_time": 17991006, "end_time": 17991006, "links": ["https://en.wikipedia.org/wiki/Battle_of_Castricum"]}, {"title": "Battle of Franklin", "longitude": -86.8733, "latitude": 35.9174, "start_time": 18641130, "end_time": 18641130, "links": ["https://en.wikipedia.org/wiki/Battle_of_Franklin_(1864)"]}, {"title": "First Battle of Benghazi", "longitude": 20.066666666, "latitude": 32.116666666, "start_time": 20110215, "end_time": 20110220, "links": ["https://en.wikipedia.org/wiki/First_Battle_of_Benghazi"]}, {"title": "Battle of Medenine", "longitude": 10.3, "latitude": 33.6333, "start_time": 19430306, "end_time": 19430306, "links": ["https://en.wikipedia.org/wiki/Battle_of_Medenine"]}, {"title": "Battle of Cape St Vincent", "longitude": -8.994444444, "latitude": 37.025, "start_time": 17970214, "end_time": 17970214, "links": ["https://en.wikipedia.org/wiki/Battle_of_Cape_St_Vincent_(1797)"]}, {"title": "Battle of Breitenfeld (1631)", "longitude": 12.33333333, "latitude": 51.4, "start_time": 16310907, "end_time": 16310907, "links": ["https://en.wikipedia.org/wiki/Battle_of_Breitenfeld_(1631)"]}, {"title": "Battle of Kosovo", "longitude": 21.12, "latitude": 42.63, "start_time": 13890706, "end_time": 13890706, "links": ["https://en.wikipedia.org/wiki/Battle_of_Kosovo"]}, {"title": "Battle of the Hellespont", "longitude": 26.4, "latitude": 40.2, "start_time": 3240701, "end_time": 3240701, "links": ["https://en.wikipedia.org/wiki/Battle_of_the_Hellespont"]}, {"title": "Battle of Cannae", "longitude": 16.1325, "latitude": 41.306388888, "start_time": -2149271, "end_time": -2149271, "links": ["https://en.wikipedia.org/wiki/Battle_of_Cannae"]}, {"title": "Battle of Gaugamela", "longitude": 43.25, "latitude": 36.36, "start_time": -3299074, "end_time": -3299074, "links": ["https://en.wikipedia.org/wiki/Battle_of_Gaugamela"]}, {"title": "Battle of Tours", "longitude": 0.68916667, "latitude": 47.39361111, "start_time": 7320101, "end_time": 7320101, "links": ["https://en.wikipedia.org/wiki/Battle_of_Tours"]}, {"title": "Siege of Glatz", "longitude": 16.67, "latitude": 50.433, "start_time": 17600607, "end_time": 17600726, "links": ["https://en.wikipedia.org/wiki/Siege_of_Glatz"]}, {"title": "Battle of Plataea", "longitude": 23.318, "latitude": 38.24, "start_time": -4779178, "end_time": -4779178, "links": ["https://en.wikipedia.org/wiki/Battle_of_Plataea"]}, {"title": "Battle of Imphal", "longitude": 93.95, "latitude": 24.816666666, "start_time": 19440308, "end_time": 19440703, "links": ["https://en.wikipedia.org/wiki/Battle_of_Imphal"]}, {"title": "Battle of Corunna", "longitude": -8.404722222, "latitude": 43.362777777, "start_time": 18090116, "end_time": 18090116, "links": ["https://en.wikipedia.org/wiki/Battle_of_Corunna"]}, {"title": "Battles of Narvik", "longitude": 17.56, "latitude": 68.420555555, "start_time": 19400409, "end_time": 19400608, "links": ["https://en.wikipedia.org/wiki/Battles_of_Narvik"]}, {"title": "Battle of Stadtlohn", "longitude": 6.94669, "latitude": 52.0198, "start_time": 16230806, "end_time": 16230806, "links": ["https://en.wikipedia.org/wiki/Battle_of_Stadtlohn"]}, {"title": "Battle of Salamanca", "longitude": -5.64526, "latitude": 40.89353, "start_time": 18120722, "end_time": 18120722, "links": ["https://en.wikipedia.org/wiki/Battle_of_Salamanca"]}, {"title": "First Battle of Bull Run", "longitude": -77.5227, "latitude": 38.8147, "start_time": 18610721, "end_time": 18610721, "links": ["https://en.wikipedia.org/wiki/First_Battle_of_Bull_Run"]}, {"title": "Battle of the Ardennes", "longitude": 5.666666666, "latitude": 50.25, "start_time": 19140821, "end_time": 19140823, "links": ["https://en.wikipedia.org/wiki/Battle_of_the_Ardennes"]}, {"title": "Second Battle of Artois", "longitude": 2.75, "latitude": 50.5, "start_time": 19150509, "end_time": 19150618, "links": ["https://en.wikipedia.org/wiki/Second_Battle_of_Artois"]}, {"title": "Battle of Trafalgar", "longitude": -6.25534, "latitude": 36.29299, "start_time": 18051021, "end_time": 18051021, "links": ["https://en.wikipedia.org/wiki/Battle_of_Trafalgar"]}, {"title": "Battle of Midway", "longitude": -177.35, "latitude": 28.2, "start_time": 19420604, "end_time": 19420606, "links": ["https://en.wikipedia.org/wiki/Battle_of_Midway"]}, {"title": "Demyansk Pocket", "longitude": 32.466666666, "latitude": 57.65, "start_time": 19420107, "end_time": 19420525, "links": ["https://en.wikipedia.org/wiki/Demyansk_Pocket"]}, {"title": "Battle of Ramillies", "longitude": 4.912777777, "latitude": 50.638611111, "start_time": 17060523, "end_time": 17060523, "links": ["https://en.wikipedia.org/wiki/Battle_of_Ramillies"]}, {"title": "First Battle of El Alamein", "longitude": 28.95, "latitude": 30.833333333, "start_time": 19420701, "end_time": 19420727, "links": ["https://en.wikipedia.org/wiki/First_Battle_of_El_Alamein"]}, {"title": "Battle of Toulon", "longitude": 5.55, "latitude": 43.07, "start_time": 17070729, "end_time": 17070821, "links": ["https://en.wikipedia.org/wiki/Battle_of_Toulon_(1707)"]}, {"title": "Battle of Gadebusch", "longitude": 11.11667, "latitude": 53.7, "start_time": 17121220, "end_time": 17121220, "links": ["https://en.wikipedia.org/wiki/Battle_of_Gadebusch"]}, {"title": "Raid on Berlin", "longitude": 13.4081, "latitude": 52.5186, "start_time": 17601009, "end_time": 17601012, "links": ["https://en.wikipedia.org/wiki/Raid_on_Berlin"]}, {"title": "Battle of L\u00fctzen (1632)", "longitude": 12.1375, "latitude": 51.2525, "start_time": 16321116, "end_time": 16321116, "links": ["https://en.wikipedia.org/wiki/Battle_of_L%C3%BCtzen_(1632)"]}, {"title": "Battle of Talavera", "longitude": -4.83333333, "latitude": 39.96666667, "start_time": 18090728, "end_time": 18090728, "links": ["https://en.wikipedia.org/wiki/Battle_of_Talavera"]}, {"title": "Battle of Jakobstadt", "longitude": 25.870833333, "latitude": 56.503611111, "start_time": 17040805, "end_time": 17040805, "links": ["https://en.wikipedia.org/wiki/Battle_of_Jakobstadt"]}, {"title": "Battle of Saint Gotthard", "longitude": 16.21666667, "latitude": 46.94166667, "start_time": 16640801, "end_time": 16640801, "links": ["https://en.wikipedia.org/wiki/Battle_of_Saint_Gotthard_(1664)"]}, {"title": "Battle of Bautzen", "longitude": 14.4167, "latitude": 51.1833, "start_time": 18130520, "end_time": 18130521, "links": ["https://en.wikipedia.org/wiki/Battle_of_Bautzen"]}, {"title": "Marco Polo Bridge Incident", "longitude": 116.213056, "latitude": 39.849167, "start_time": 19370707, "end_time": 19370709, "links": ["https://en.wikipedia.org/wiki/Marco_Polo_Bridge_Incident"]}, {"title": "Batalla De Las Navas de Tolosa", "longitude": -3.58286, "latitude": 38.28443, "start_time": 12120716, "end_time": 12120716, "links": ["https://en.wikipedia.org/wiki/Battle_of_Las_Navas_de_Tolosa"]}, {"title": "Battle of Freiburg", "longitude": 7.8522, "latitude": 47.9955, "start_time": 16440803, "end_time": 16440809, "links": ["https://en.wikipedia.org/wiki/Battle_of_Freiburg"]}, {"title": "Battle of Yellow Tavern", "longitude": -77.4552, "latitude": 37.6599, "start_time": 18640511, "end_time": 18640511, "links": ["https://en.wikipedia.org/wiki/Battle_of_Yellow_Tavern"]}, {"title": "Battle of Tinian", "longitude": 145.63333333, "latitude": 15.0, "start_time": 19440724, "end_time": 19440801, "links": ["https://en.wikipedia.org/wiki/Battle_of_Tinian"]}, {"title": "Altmark Incident", "longitude": 6.336388888, "latitude": 58.316944444, "start_time": 19400216, "end_time": 19400216, "links": ["https://en.wikipedia.org/wiki/Altmark_Incident"]}, {"title": "Battle of Damme", "longitude": 3.381813888, "latitude": 51.333588888, "start_time": 12130531, "end_time": 12130531, "links": ["https://en.wikipedia.org/wiki/Battle_of_Damme"]}, {"title": "Battle of Bomarsund", "longitude": 20.238333333, "latitude": 60.212222222, "start_time": 18540801, "end_time": 18540801, "links": ["https://en.wikipedia.org/wiki/Battle_of_Bomarsund"]}, {"title": "Battle of Damascus", "longitude": 36.298333333, "latitude": 33.512222222, "start_time": 20120729, "end_time": 20120729, "links": ["https://en.wikipedia.org/wiki/Battle_of_Damascus_(2012)"]}, {"title": "Battle of Skafida", "longitude": 27.64666667, "latitude": 42.38361111, "start_time": 13040101, "end_time": 13040101, "links": ["https://en.wikipedia.org/wiki/Battle_of_Skafida"]}, {"title": "Battle of Vaught's Hill", "longitude": -86.2047, "latitude": 35.92523, "start_time": 18630320, "end_time": 18630320, "links": ["https://en.wikipedia.org/wiki/Battle_of_Vaught%27s_Hill"]}, {"title": "Battle of Cornus", "longitude": 8.97, "latitude": 39.31, "start_time": -2139899, "end_time": -2139899, "links": ["https://en.wikipedia.org/wiki/Battle_of_Decimomannu"]}, {"title": "Battle of Assaye", "longitude": 75.887, "latitude": 20.236, "start_time": 18030923, "end_time": 18030923, "links": ["https://en.wikipedia.org/wiki/Battle_of_Assaye"]}, {"title": "Battle of Bantry Bay", "longitude": -9.71666667, "latitude": 51.65, "start_time": 16890511, "end_time": 16890511, "links": ["https://en.wikipedia.org/wiki/Battle_of_Bantry_Bay"]}, {"title": "Battles of Latrun", "longitude": 34.98075278, "latitude": 31.83844167, "start_time": 19480524, "end_time": 19480718, "links": ["https://en.wikipedia.org/wiki/Battles_of_Latrun_(1948)"]}, {"title": "Battle of Hanover Court House", "longitude": -77.3763, "latitude": 37.7222, "start_time": 18620527, "end_time": 18620527, "links": ["https://en.wikipedia.org/wiki/Battle_of_Hanover_Court_House"]}, {"title": "Battle of Largs", "longitude": -4.86789, "latitude": 55.79259, "start_time": 12631009, "end_time": 12631009, "links": ["https://en.wikipedia.org/wiki/Battle_of_Largs"]}, {"title": "Battle of Fort Brooke", "longitude": -82.464423, "latitude": 28.015468, "start_time": 18631016, "end_time": 18631018, "links": ["https://en.wikipedia.org/wiki/Battle_of_Fort_Brooke"]}, {"title": "First Battle of Rappahannock Station", "longitude": -77.8302, "latitude": 38.5272, "start_time": 18620822, "end_time": 18620825, "links": ["https://en.wikipedia.org/wiki/First_Battle_of_Rappahannock_Station"]}, {"title": "Battle of Kunersdorf", "longitude": 14.612777777, "latitude": 52.353055555, "start_time": 17590823, "end_time": 17590823, "links": ["https://en.wikipedia.org/wiki/Battle_of_Kunersdorf"]}, {"title": "First Battle of Fallujah", "longitude": 43.783333, "latitude": 33.35, "start_time": 20040404, "end_time": 20040501, "links": ["https://en.wikipedia.org/wiki/First_Battle_of_Fallujah"]}, {"title": "Battle of Angaur", "longitude": 134.133, "latitude": 6.9, "start_time": 19440915, "end_time": 19440930, "links": ["https://en.wikipedia.org/wiki/Battle_of_Angaur"]}, {"title": "Battle of Spotsylvania Court House", "longitude": -77.5981, "latitude": 38.2242, "start_time": 18640513, "end_time": 18640513, "links": ["https://en.wikipedia.org/wiki/Battle_of_Spotsylvania_Court_House"]}, {"title": "Battle of St. Quentin", "longitude": 3.62833333, "latitude": 49.90083333, "start_time": 19140829, "end_time": 19140830, "links": ["https://en.wikipedia.org/wiki/Battle_of_St._Quentin_(1914)"]}, {"title": "Battle of Camden", "longitude": -80.6139, "latitude": 34.364552777, "start_time": 17800816, "end_time": 17800816, "links": ["https://en.wikipedia.org/wiki/Battle_of_Camden"]}, {"title": "Battle of Aliwal", "longitude": 75.6142, "latitude": 30.9452, "start_time": 18460128, "end_time": 18460128, "links": ["https://en.wikipedia.org/wiki/Battle_of_Aliwal"]}, {"title": "Battle of South Mountain", "longitude": -77.62161, "latitude": 39.48501, "start_time": 18620914, "end_time": 18620914, "links": ["https://en.wikipedia.org/wiki/Battle_of_South_Mountain"]}, {"title": "Battle of the Persian Gate", "longitude": 51.598611111, "latitude": 30.708333333, "start_time": -3289885, "end_time": -3289885, "links": ["https://en.wikipedia.org/wiki/Battle_of_the_Persian_Gate"]}, {"title": "Battle of Ferozeshah", "longitude": 74.7833, "latitude": 30.8833, "start_time": 18451221, "end_time": 18451222, "links": ["https://en.wikipedia.org/wiki/Battle_of_Ferozeshah"]}, {"title": "Battle of Meloria", "longitude": 9.97558611, "latitude": 43.31718611, "start_time": 12840813, "end_time": 12840813, "links": ["https://en.wikipedia.org/wiki/Battle_of_Meloria_(1284)"]}, {"title": "Second Battle of Algeciras", "longitude": -5.42917, "latitude": 36.1333, "start_time": 18010712, "end_time": 18010713, "links": ["https://en.wikipedia.org/wiki/Second_Battle_of_Algeciras"]}, {"title": "Battle of Kol\u00edn", "longitude": 15.122, "latitude": 50.029, "start_time": 17570618, "end_time": 17570618, "links": ["https://en.wikipedia.org/wiki/Battle_of_Kol%C3%ADn"]}, {"title": "Battle of Palmito Ranch", "longitude": -97.28528, "latitude": 25.94667, "start_time": 18650512, "end_time": 18650513, "links": ["https://en.wikipedia.org/wiki/Battle_of_Palmito_Ranch"]}, {"title": "Battle of Mogadishu", "longitude": 45.324722222, "latitude": 2.0525, "start_time": 19931003, "end_time": 19931004, "links": ["https://en.wikipedia.org/wiki/Battle_of_Mogadishu_(1993)"]}, {"title": "Battle for Brest", "longitude": 4.48556, "latitude": 48.3908, "start_time": 19440807, "end_time": 19440919, "links": ["https://en.wikipedia.org/wiki/Battle_for_Brest"]}, {"title": "Battle of Gembloux", "longitude": 4.666, "latitude": 50.6, "start_time": 19400514, "end_time": 19400515, "links": ["https://en.wikipedia.org/wiki/Battle_of_Gembloux_(1940)"]}, {"title": "Battle of Fort Eben-Emael", "longitude": 5.68083333, "latitude": 50.79722222, "start_time": 19400510, "end_time": 19400511, "links": ["https://en.wikipedia.org/wiki/Battle_of_Fort_Eben-Emael"]}, {"title": "Battle of Arnemuiden", "longitude": 3.373, "latitude": 51.645, "start_time": 13380923, "end_time": 13380923, "links": ["https://en.wikipedia.org/wiki/Battle_of_Arnemuiden"]}, {"title": "Battle of the Dunes", "longitude": 2.3775, "latitude": 51.0383, "start_time": 16580614, "end_time": 16580614, "links": ["https://en.wikipedia.org/wiki/Battle_of_the_Dunes_(1658)"]}, {"title": "Battle of Nocera", "longitude": 14.64158056, "latitude": 40.7563, "start_time": 11320731, "end_time": 11320731, "links": ["https://en.wikipedia.org/wiki/Battle_of_Nocera"]}, {"title": "Battle of Rignano", "longitude": 15.58333333, "latitude": 41.68333333, "start_time": 11370101, "end_time": 11370101, "links": ["https://en.wikipedia.org/wiki/Battle_of_Rignano"]}, {"title": "Battle of Demetritzes", "longitude": 23.38333333, "latitude": 41.23333333, "start_time": 11851114, "end_time": 11851114, "links": ["https://en.wikipedia.org/wiki/Battle_of_Demetritzes"]}, {"title": "Battle of Raseiniai", "longitude": 23.2833, "latitude": 55.35, "start_time": 19410623, "end_time": 19410627, "links": ["https://en.wikipedia.org/wiki/Battle_of_Raseiniai"]}, {"title": "Battle for Height 776", "longitude": 45.80472222, "latitude": 42.96305556, "start_time": 20000229, "end_time": 20000301, "links": ["https://en.wikipedia.org/wiki/Battle_for_Height_776"]}, {"title": "Battle of Braga", "longitude": -8.42194444, "latitude": 41.54416667, "start_time": 18090320, "end_time": 18090320, "links": ["https://en.wikipedia.org/wiki/Battle_of_Braga_(1809)"]}, {"title": "Battle of Chapultepec", "longitude": -99.182, "latitude": 19.421, "start_time": 18470912, "end_time": 18470913, "links": ["https://en.wikipedia.org/wiki/Battle_of_Chapultepec"]}, {"title": "Battle of Helsingborg", "longitude": 12.72, "latitude": 56.0775, "start_time": 17100310, "end_time": 17100310, "links": ["https://en.wikipedia.org/wiki/Battle_of_Helsingborg"]}, {"title": "Battle of Hohenlinden", "longitude": 12.0, "latitude": 48.15, "start_time": 18001203, "end_time": 18001203, "links": ["https://en.wikipedia.org/wiki/Battle_of_Hohenlinden"]}, {"title": "Battle of Mohi", "longitude": 20.91329167, "latitude": 47.97774722, "start_time": 12410418, "end_time": 12410418, "links": ["https://en.wikipedia.org/wiki/Battle_of_Mohi"]}, {"title": "Battle of Quatre Bras", "longitude": 4.453, "latitude": 50.571, "start_time": 18150616, "end_time": 18150616, "links": ["https://en.wikipedia.org/wiki/Battle_of_Quatre_Bras"]}, {"title": "Battle of Fort Washington", "longitude": -73.938, "latitude": 40.853, "start_time": 17761116, "end_time": 17761116, "links": ["https://en.wikipedia.org/wiki/Battle_of_Fort_Washington"]}, {"title": "Battle of Caen", "longitude": -0.370556, "latitude": 49.1822, "start_time": 13460811, "end_time": 13460811, "links": ["https://en.wikipedia.org/wiki/Battle_of_Caen_(1346)"]}, {"title": "Battle of Okolona", "longitude": -88.7556, "latitude": 34.0021, "start_time": 18640222, "end_time": 18640222, "links": ["https://en.wikipedia.org/wiki/Battle_of_Okolona"]}, {"title": "Battle of Reading", "longitude": -0.96, "latitude": 51.46, "start_time": 8710108, "end_time": 8710108, "links": ["https://en.wikipedia.org/wiki/Battle_of_Reading_(871)"]}, {"title": "Siege of Hlukhiv", "longitude": 33.9167, "latitude": 51.6833, "start_time": 16640122, "end_time": 16640209, "links": ["https://en.wikipedia.org/wiki/Siege_of_Hlukhiv"]}, {"title": "Battle of Tehumardi", "longitude": 22.25, "latitude": 58.17638889, "start_time": 19441008, "end_time": 19441008, "links": ["https://en.wikipedia.org/wiki/Battle_of_Tehumardi"]}, {"title": "Battle of Lyubar", "longitude": 27.5771, "latitude": 49.9141, "start_time": 16600914, "end_time": 16600927, "links": ["https://en.wikipedia.org/wiki/Battle_of_Lyubar"]}, {"title": "Battle of St. Quentin", "longitude": 3.28639, "latitude": 49.8486, "start_time": 15570810, "end_time": 15570810, "links": ["https://en.wikipedia.org/wiki/Battle_of_St._Quentin_(1557)"]}, {"title": "Battle of Mansura", "longitude": -92.04777778, "latitude": 31.055, "start_time": 18640516, "end_time": 18640516, "links": ["https://en.wikipedia.org/wiki/Battle_of_Mansura"]}, {"title": "Battle of Tampa", "longitude": -82.4559, "latitude": 27.9415, "start_time": 18620630, "end_time": 18620701, "links": ["https://en.wikipedia.org/wiki/Battle_of_Tampa"]}, {"title": "Battle of Najaf", "longitude": 44.333333333, "latitude": 32.0, "start_time": 20030324, "end_time": 20030404, "links": ["https://en.wikipedia.org/wiki/Battle_of_Najaf_(2003)"]}, {"title": "Battle of Suzdal", "longitude": 40.43333333, "latitude": 56.43333333, "start_time": 14450716, "end_time": 14450716, "links": ["https://en.wikipedia.org/wiki/Battle_of_Suzdal"]}, {"title": "Battle of Cuautla", "longitude": -98.95, "latitude": 18.81666667, "start_time": 19110511, "end_time": 19110519, "links": ["https://en.wikipedia.org/wiki/Battle_of_Cuautla_(1911)"]}, {"title": "Battle of San Domingo", "longitude": -70.05, "latitude": 18.3, "start_time": 18060206, "end_time": 18060206, "links": ["https://en.wikipedia.org/wiki/Battle_of_San_Domingo"]}, {"title": "Battle of the Chinese Farm", "longitude": 32.4, "latitude": 30.45, "start_time": 19731015, "end_time": 19731017, "links": ["https://en.wikipedia.org/wiki/Battle_of_the_Chinese_Farm"]}, {"title": "Battle of Ruvo", "longitude": 16.48333333, "latitude": 41.11666667, "start_time": 15030223, "end_time": 15030223, "links": ["https://en.wikipedia.org/wiki/Battle_of_Ruvo"]}, {"title": "Battle of the Basque Roads", "longitude": -1.1917, "latitude": 46.0, "start_time": 18090411, "end_time": 18090425, "links": ["https://en.wikipedia.org/wiki/Battle_of_the_Basque_Roads"]}, {"title": "Battle of Hattin", "longitude": 35.444444444, "latitude": 32.803611111, "start_time": 11870704, "end_time": 11870704, "links": ["https://en.wikipedia.org/wiki/Battle_of_Hattin"]}, {"title": "Battle of Sekigahara", "longitude": 136.466666666, "latitude": 35.366666666, "start_time": 16001021, "end_time": 16001021, "links": ["https://en.wikipedia.org/wiki/Battle_of_Sekigahara"]}, {"title": "Battle of the Alamo", "longitude": -98.486111111, "latitude": 29.425555555, "start_time": 18360223, "end_time": 18360306, "links": ["https://en.wikipedia.org/wiki/Battle_of_the_Alamo"]}, {"title": "Battle of the Assunpink Creek", "longitude": -74.75611111, "latitude": 40.22166667, "start_time": 17770102, "end_time": 17770102, "links": ["https://en.wikipedia.org/wiki/Battle_of_the_Assunpink_Creek"]}, {"title": "Second Battle of Zurich", "longitude": 8.55, "latitude": 47.366666666, "start_time": 17990925, "end_time": 17990926, "links": ["https://en.wikipedia.org/wiki/Second_Battle_of_Zurich"]}, {"title": "Battle of Asiago", "longitude": 11.50888889, "latitude": 45.90194444, "start_time": 19160515, "end_time": 19160610, "links": ["https://en.wikipedia.org/wiki/Battle_of_Asiago"]}, {"title": "Battle of the Yellow Sea", "longitude": 122.25816667, "latitude": 37.96383333, "start_time": 19040810, "end_time": 19040810, "links": ["https://en.wikipedia.org/wiki/Battle_of_the_Yellow_Sea"]}, {"title": "Battle of Ko Chang", "longitude": 102.451, "latitude": 12.001, "start_time": 19410116, "end_time": 19410117, "links": ["https://en.wikipedia.org/wiki/Battle_of_Ko_Chang"]}, {"title": "Battle of Frankenhausen", "longitude": 11.10111111, "latitude": 51.35583333, "start_time": 15250525, "end_time": 15250525, "links": ["https://en.wikipedia.org/wiki/Battle_of_Frankenhausen"]}, {"title": "Battle of Rain", "longitude": 10.9172, "latitude": 48.6902, "start_time": 16320414, "end_time": 16320415, "links": ["https://en.wikipedia.org/wiki/Battle_of_Rain"]}, {"title": "Battle of Bataan", "longitude": 120.417, "latitude": 14.6667, "start_time": 19420107, "end_time": 19420409, "links": ["https://en.wikipedia.org/wiki/Battle_of_Bataan"]}, {"title": "Battle of Stilo", "longitude": 17.2022, "latitude": 39.0254, "start_time": 9820714, "end_time": 9820714, "links": ["https://en.wikipedia.org/wiki/Battle_of_Stilo"]}, {"title": "Hundred Regiments Offensive", "longitude": 116.3, "latitude": 37.45, "start_time": 19400820, "end_time": 19401205, "links": ["https://en.wikipedia.org/wiki/Hundred_Regiments_Offensive"]}, {"title": "Battle of Changsha", "longitude": 112.967, "latitude": 28.2, "start_time": 19420115, "end_time": 19420115, "links": ["https://en.wikipedia.org/wiki/Battle_of_Changsha_(1942)"]}, {"title": "Battle of Changsha", "longitude": 112.967, "latitude": 28.2, "start_time": 19390917, "end_time": 19391006, "links": ["https://en.wikipedia.org/wiki/Battle_of_Changsha_(1939)"]}, {"title": "Battle of South Shanxi", "longitude": 112.0, "latitude": 38.0, "start_time": 19410507, "end_time": 19410527, "links": ["https://en.wikipedia.org/wiki/Battle_of_South_Shanxi"]}, {"title": "Battle of South Henan", "longitude": 113.5, "latitude": 33.8333, "start_time": 19410130, "end_time": 19410301, "links": ["https://en.wikipedia.org/wiki/Battle_of_South_Henan"]}, {"title": "Battle of Nanchang", "longitude": 115.88333333, "latitude": 28.68333333, "start_time": 19390509, "end_time": 19390509, "links": ["https://en.wikipedia.org/wiki/Battle_of_Nanchang"]}, {"title": "Battle of Xuzhou", "longitude": 117.167, "latitude": 34.2667, "start_time": 19380324, "end_time": 19380501, "links": ["https://en.wikipedia.org/wiki/Battle_of_Xuzhou"]}, {"title": "Battle of Taiyuan", "longitude": 112.55, "latitude": 37.85, "start_time": 19370901, "end_time": 19371109, "links": ["https://en.wikipedia.org/wiki/Battle_of_Taiyuan"]}, {"title": "Battle of South Guangxi", "longitude": 108.984, "latitude": 23.8055, "start_time": 19391115, "end_time": 19401130, "links": ["https://en.wikipedia.org/wiki/Battle_of_South_Guangxi"]}, {"title": "Battle off Ulsan", "longitude": 129.944, "latitude": 35.07266667, "start_time": 19040814, "end_time": 19040814, "links": ["https://en.wikipedia.org/wiki/Battle_off_Ulsan"]}, {"title": "Fourth Battle of the Isonzo", "longitude": 13.61111111, "latitude": 45.96916667, "start_time": 19151110, "end_time": 19151202, "links": ["https://en.wikipedia.org/wiki/Fourth_Battle_of_the_Isonzo"]}, {"title": "Battle of St. Vith", "longitude": 6.12666667, "latitude": 50.28194444, "start_time": 19441221, "end_time": 19441221, "links": ["https://en.wikipedia.org/wiki/Battle_of_St._Vith"]}, {"title": "Battle of Gabon", "longitude": 9.45166667, "latitude": 0.39, "start_time": 19401107, "end_time": 19401112, "links": ["https://en.wikipedia.org/wiki/Battle_of_Gabon"]}, {"title": "Battle of Ia Drang", "longitude": 107.71666667, "latitude": 13.58333333, "start_time": 19651114, "end_time": 19651118, "links": ["https://en.wikipedia.org/wiki/Battle_of_Ia_Drang"]}, {"title": "Allied invasion of Italy", "longitude": 14.7566, "latitude": 40.679, "start_time": 19430903, "end_time": 19430916, "links": ["https://en.wikipedia.org/wiki/Allied_invasion_of_Italy"]}, {"title": "Siege of Fort William Henry", "longitude": -73.71111111, "latitude": 43.42027778, "start_time": 17570803, "end_time": 17570803, "links": ["https://en.wikipedia.org/wiki/Siege_of_Fort_William_Henry"]}, {"title": "Battle of Syracuse", "longitude": 15.2842881, "latitude": 37.0662275, "start_time": 17101109, "end_time": 17101109, "links": ["https://en.wikipedia.org/wiki/Battle_of_Syracuse_(1710)"]}, {"title": "Battle of Vyborg Bay", "longitude": 28.5, "latitude": 60.58333333, "start_time": 19440701, "end_time": 19440710, "links": ["https://en.wikipedia.org/wiki/Battle_of_Vyborg_Bay_(1944)"]}, {"title": "Battle of Nietj\u00e4rvi", "longitude": 31.491, "latitude": 61.615, "start_time": 19440715, "end_time": 19440717, "links": ["https://en.wikipedia.org/wiki/Battle_of_Nietj%C3%A4rvi"]}, {"title": "Battle of Bauds", "longitude": -2.893, "latitude": 57.649, "start_time": 9620101, "end_time": 9620101, "links": ["https://en.wikipedia.org/wiki/Battle_of_Bauds"]}, {"title": "Battle of Guttstadt-Deppen", "longitude": 20.4, "latitude": 53.98333333, "start_time": 18070607, "end_time": 18070607, "links": ["https://en.wikipedia.org/wiki/Battle_of_Guttstadt-Deppen"]}, {"title": "Battle of Arawe", "longitude": 149.01666667, "latitude": -6.16666667, "start_time": 19431215, "end_time": 19440224, "links": ["https://en.wikipedia.org/wiki/Battle_of_Arawe"]}, {"title": "Battle of Mactan", "longitude": 124.0151, "latitude": 10.3106, "start_time": 15210507, "end_time": 15210507, "links": ["https://en.wikipedia.org/wiki/Battle_of_Mactan"]}, {"title": "Battle of Moh\u00e1cs", "longitude": 18.647222222, "latitude": 45.941388888, "start_time": 15260829, "end_time": 15260829, "links": ["https://en.wikipedia.org/wiki/Battle_of_Moh%C3%A1cs"]}, {"title": "Battle of Waterberg", "longitude": 17.30805556, "latitude": -20.47666667, "start_time": 19040811, "end_time": 19040811, "links": ["https://en.wikipedia.org/wiki/Battle_of_Waterberg"]}, {"title": "Second Battle of Ypres", "longitude": 2.979, "latitude": 50.891, "start_time": 19150421, "end_time": 19150525, "links": ["https://en.wikipedia.org/wiki/Second_Battle_of_Ypres"]}, {"title": "Second Battle of the Isonzo", "longitude": 13.52805556, "latitude": 45.86333333, "start_time": 19150718, "end_time": 19150803, "links": ["https://en.wikipedia.org/wiki/Second_Battle_of_the_Isonzo"]}, {"title": "Battle of Hel", "longitude": 18.781388888, "latitude": 54.641666666, "start_time": 19390909, "end_time": 19391002, "links": ["https://en.wikipedia.org/wiki/Battle_of_Hel"]}, {"title": "Battle of Gemauerthof", "longitude": 23.5253, "latitude": 56.4344, "start_time": 17050726, "end_time": 17050726, "links": ["https://en.wikipedia.org/wiki/Battle_of_Gemauerthof"]}, {"title": "Battle of Klissow", "longitude": 20.52583333, "latitude": 50.61666667, "start_time": 17020719, "end_time": 17020719, "links": ["https://en.wikipedia.org/wiki/Battle_of_Klisz%C3%B3w"]}, {"title": "Bougainville Campaign", "longitude": 155.3, "latitude": -6.13333333, "start_time": 19431101, "end_time": 19450821, "links": ["https://en.wikipedia.org/wiki/Bougainville_Campaign"]}, {"title": "Battle of Tanga", "longitude": 39.1, "latitude": -5.06666667, "start_time": 19141103, "end_time": 19141105, "links": ["https://en.wikipedia.org/wiki/Battle_of_Tanga"]}, {"title": "Battle of Pavia", "longitude": 9.15, "latitude": 45.1833, "start_time": 2710101, "end_time": 2710101, "links": ["https://en.wikipedia.org/wiki/Battle_of_Pavia_(271)"]}, {"title": "Battle of Placentia", "longitude": 9.7, "latitude": 45.05, "start_time": 2710101, "end_time": 2710101, "links": ["https://en.wikipedia.org/wiki/Battle_of_Placentia_(271)"]}, {"title": "Battle of Beth Zur", "longitude": 35.094155, "latitude": 31.589383, "start_time": -1629899, "end_time": -1629899, "links": ["https://en.wikipedia.org/wiki/Battle_of_Beth_Zur"]}, {"title": "Battle of Flodden", "longitude": -2.1753, "latitude": 55.62693, "start_time": 15130919, "end_time": 15130919, "links": ["https://en.wikipedia.org/wiki/Battle_of_Flodden"]}, {"title": "Battle of Qurna", "longitude": 47.4333, "latitude": 31.0167, "start_time": 19141203, "end_time": 19141209, "links": ["https://en.wikipedia.org/wiki/Battle_of_Qurna"]}, {"title": "Operation Maslenica", "longitude": 15.52277778, "latitude": 44.23666667, "start_time": 19930122, "end_time": 19930201, "links": ["https://en.wikipedia.org/wiki/Operation_Maslenica"]}, {"title": "Battle of the Herrings", "longitude": 1.73333, "latitude": 48.0667, "start_time": 14290302, "end_time": 14290302, "links": ["https://en.wikipedia.org/wiki/Battle_of_the_Herrings"]}, {"title": "Battle of Concepci\u00f3n", "longitude": -98.49027778, "latitude": 29.39055556, "start_time": 18351028, "end_time": 18351028, "links": ["https://en.wikipedia.org/wiki/Battle_of_Concepci%C3%B3n"]}, {"title": "Battle of Kirina", "longitude": -8.1516667, "latitude": 12.3063889, "start_time": 12350101, "end_time": 12350101, "links": ["https://en.wikipedia.org/wiki/Battle_of_Kirina"]}, {"title": "Battle of Binh Gia", "longitude": 107.28333333, "latitude": 10.65, "start_time": 19641228, "end_time": 19650101, "links": ["https://en.wikipedia.org/wiki/Battle_of_Binh_Gia"]}, {"title": "Battle of Tarakan", "longitude": 117.56666667, "latitude": 3.35, "start_time": 19420111, "end_time": 19420112, "links": ["https://en.wikipedia.org/wiki/Battle_of_Tarakan_(1942)"]}, {"title": "Battle of Volturnus", "longitude": 14.09444444, "latitude": 41.09194444, "start_time": 18600926, "end_time": 18601002, "links": ["https://en.wikipedia.org/wiki/Battle_of_Volturnus_(1860)"]}, {"title": "Battle of Ulundi", "longitude": 31.41666667, "latitude": -28.31666667, "start_time": 18790704, "end_time": 18790704, "links": ["https://en.wikipedia.org/wiki/Battle_of_Ulundi"]}, {"title": "Battle of Durocortorum", "longitude": 4.0225, "latitude": 49.1456, "start_time": 3560101, "end_time": 3560101, "links": ["https://en.wikipedia.org/wiki/Battle_of_Durocortorum"]}, {"title": "C\u00e1diz Expedition", "longitude": -6.283333333, "latitude": 36.533333333, "start_time": 16251101, "end_time": 16251107, "links": ["https://en.wikipedia.org/wiki/C%C3%A1diz_expedition_(1625)"]}, {"title": "Battle of Beaver Dam Creek", "longitude": -77.3599, "latitude": 37.5985, "start_time": 18620626, "end_time": 18620626, "links": ["https://en.wikipedia.org/wiki/Battle_of_Beaver_Dam_Creek"]}, {"title": "Battle of Issus", "longitude": 36.16444444, "latitude": 36.83833333, "start_time": 1940101, "end_time": 1940101, "links": ["https://en.wikipedia.org/wiki/Battle_of_Issus_(194)"]}, {"title": "Battle of Bristoe Station", "longitude": -77.5418, "latitude": 38.7234, "start_time": 18631014, "end_time": 18631014, "links": ["https://en.wikipedia.org/wiki/Battle_of_Bristoe_Station"]}, {"title": "Battle of Siikajoki", "longitude": 24.73333333, "latitude": 64.83333333, "start_time": 18080418, "end_time": 18080418, "links": ["https://en.wikipedia.org/wiki/Battle_of_Siikajoki"]}, {"title": "Battle of Hatteras Inlet Batteries", "longitude": -75.7645, "latitude": 35.1864, "start_time": 18610828, "end_time": 18610829, "links": ["https://en.wikipedia.org/wiki/Battle_of_Hatteras_Inlet_Batteries"]}, {"title": "Battle of Wyoming", "longitude": -75.905, "latitude": 41.25, "start_time": 17780703, "end_time": 17780703, "links": ["https://en.wikipedia.org/wiki/Battle_of_Wyoming"]}, {"title": "Battle of Kessler's Cross Lanes", "longitude": -80.935, "latitude": 38.235, "start_time": 18610826, "end_time": 18610826, "links": ["https://en.wikipedia.org/wiki/Battle_of_Kessler%27s_Cross_Lanes"]}, {"title": "Battle of Hartville", "longitude": -92.5111, "latitude": 37.2511, "start_time": 18630109, "end_time": 18630111, "links": ["https://en.wikipedia.org/wiki/Battle_of_Hartville"]}, {"title": "Battle of Neville's Cross", "longitude": -1.5971, "latitude": 54.77599, "start_time": 13461017, "end_time": 13461017, "links": ["https://en.wikipedia.org/wiki/Battle_of_Neville%27s_Cross"]}, {"title": "Battle of Iwo Jima", "longitude": 141.316666666, "latitude": 24.783333333, "start_time": 19450209, "end_time": 19450326, "links": ["https://en.wikipedia.org/wiki/Battle_of_Iwo_Jima"]}, {"title": "Battle of Wilson's Creek", "longitude": -93.41008276, "latitude": 37.09558638, "start_time": 18610810, "end_time": 18610810, "links": ["https://en.wikipedia.org/wiki/Battle_of_Wilson%27s_Creek"]}, {"title": "Battle of the Afsluitdijk", "longitude": 5.336944, "latitude": 53.074167, "start_time": 19400512, "end_time": 19400514, "links": ["https://en.wikipedia.org/wiki/Battle_of_the_Afsluitdijk"]}, {"title": "Battle of Salla", "longitude": 28.66666667, "latitude": 66.83333333, "start_time": 19391130, "end_time": 19400228, "links": ["https://en.wikipedia.org/wiki/Battle_of_Salla_(1939)"]}, {"title": "Battle of Utsunomiya Castle", "longitude": 139.8851, "latitude": 36.5547, "start_time": 18680510, "end_time": 18680514, "links": ["https://en.wikipedia.org/wiki/Battle_of_Utsunomiya_Castle"]}, {"title": "Battle of Pyongyang", "longitude": 125.75, "latitude": 39.033333, "start_time": 18940915, "end_time": 18940915, "links": ["https://en.wikipedia.org/wiki/Battle_of_Pyongyang_(1894)"]}, {"title": "Battle of \u015awiecino", "longitude": 18.0878, "latitude": 54.7872, "start_time": 14620917, "end_time": 14620917, "links": ["https://en.wikipedia.org/wiki/Battle_of_%C5%9Awiecino"]}, {"title": "Battle of Pindus", "longitude": 20.9253, "latitude": 40.0889, "start_time": 19401028, "end_time": 19401113, "links": ["https://en.wikipedia.org/wiki/Battle_of_Pindus"]}, {"title": "Battle of Maastricht", "longitude": 5.683333333, "latitude": 50.85, "start_time": 19400510, "end_time": 19400510, "links": ["https://en.wikipedia.org/wiki/Battle_of_Maastricht"]}, {"title": "Battle of Valenciennes", "longitude": 3.52333, "latitude": 50.3581, "start_time": 16560518, "end_time": 16560716, "links": ["https://en.wikipedia.org/wiki/Battle_of_Valenciennes_(1656)"]}, {"title": "Battle of Meung-sur-Loire", "longitude": 1.69917, "latitude": 47.8294, "start_time": 14290615, "end_time": 14290615, "links": ["https://en.wikipedia.org/wiki/Battle_of_Meung-sur-Loire"]}, {"title": "Battle of Chesma", "longitude": 26.3, "latitude": 38.31666667, "start_time": 17700716, "end_time": 17700718, "links": ["https://en.wikipedia.org/wiki/Battle_of_Chesma"]}, {"title": "Bataille_de_Steyr", "longitude": 14.4168, "latitude": 48.05, "start_time": 18051104, "end_time": 18051104, "links": ["https://fr.wikipedia.org/wiki/Bataille_de_Steyr"]}, {"title": "Battle of Opequon", "longitude": -78.1325, "latitude": 39.1956, "start_time": 18640919, "end_time": 18640919, "links": ["https://en.wikipedia.org/wiki/Third_Battle_of_Winchester"]}, {"title": "Battle of Fort Stevens", "longitude": -77.0288, "latitude": 38.9641, "start_time": 18640712, "end_time": 18640712, "links": ["https://en.wikipedia.org/wiki/Battle_of_Fort_Stevens"]}, {"title": "Schlacht_an_der_Br%C3%BCcker_M%C3%BChle", "longitude": 8.9378, "latitude": 50.79345, "start_time": 17620921, "end_time": 17620921, "links": ["https://de.wikipedia.org/wiki/Schlacht_an_der_Br%C3%BCcker_M%C3%BChle"]}, {"title": "Battle of Monterrey", "longitude": -100.311111111, "latitude": 25.682222222, "start_time": 18460921, "end_time": 18460924, "links": ["https://en.wikipedia.org/wiki/Battle_of_Monterrey"]}, {"title": "Battle of Perryville", "longitude": -84.9711, "latitude": 37.6752, "start_time": 18621008, "end_time": 18621008, "links": ["https://en.wikipedia.org/wiki/Battle_of_Perryville"]}, {"title": "Battle of N\u00e1jera", "longitude": -2.73333333, "latitude": 42.41666667, "start_time": 13670403, "end_time": 13670403, "links": ["https://en.wikipedia.org/wiki/Battle_of_N%C3%A1jera"]}, {"title": "Grattan massacre", "longitude": -104.405694444, "latitude": 42.132222222, "start_time": 18540819, "end_time": 18540819, "links": ["https://en.wikipedia.org/wiki/Grattan_massacre"]}, {"title": "Battle of Brandywine", "longitude": -75.59006, "latitude": 39.872, "start_time": 17770911, "end_time": 17770911, "links": ["https://en.wikipedia.org/wiki/Battle_of_Brandywine"]}, {"title": "Battle of Lens", "longitude": 2.83333, "latitude": 50.4322, "start_time": 16480820, "end_time": 16480820, "links": ["https://en.wikipedia.org/wiki/Battle_of_Lens"]}, {"title": "Battle of Leyte", "longitude": 124.833333333, "latitude": 10.95, "start_time": 19441017, "end_time": 19441231, "links": ["https://en.wikipedia.org/wiki/Battle_of_Leyte"]}, {"title": "Battle of Iuka", "longitude": -88.2101, "latitude": 34.7936, "start_time": 18620919, "end_time": 18620919, "links": ["https://en.wikipedia.org/wiki/Battle_of_Iuka"]}, {"title": "Battle of Azaz", "longitude": 37.044722222, "latitude": 36.586111111, "start_time": 20120101, "end_time": 20120101, "links": ["https://en.wikipedia.org/wiki/Battle_of_Azaz_(2012)"]}, {"title": "First Battle of Winchester", "longitude": -78.1744, "latitude": 39.1773, "start_time": 18620525, "end_time": 18620525, "links": ["https://en.wikipedia.org/wiki/First_Battle_of_Winchester"]}, {"title": "Battle of Staten Island", "longitude": -74.14483889, "latitude": 40.57628056, "start_time": 17770822, "end_time": 17770822, "links": ["https://en.wikipedia.org/wiki/Battle_of_Staten_Island"]}, {"title": "Exp\u00e9dition d'Irlande", "longitude": -9.44861111, "latitude": 51.68083333, "start_time": 17961215, "end_time": 17961230, "links": ["https://en.wikipedia.org/wiki/French_expedition_to_Ireland_(1796)"]}, {"title": "Battle of the Rice Boats", "longitude": -81.085797222, "latitude": 32.081266666, "start_time": 17760302, "end_time": 17760303, "links": ["https://en.wikipedia.org/wiki/Battle_of_the_Rice_Boats"]}, {"title": "Battle of Mount Dingjun", "longitude": 103.86475, "latitude": 32.87958333, "start_time": 2180101, "end_time": 2190101, "links": ["https://en.wikipedia.org/wiki/Battle_of_Mount_Dingjun"]}, {"title": "Battle of Haliartus", "longitude": 23.0878, "latitude": 38.3792, "start_time": -3939899, "end_time": -3939899, "links": ["https://en.wikipedia.org/wiki/Battle_of_Haliartus"]}, {"title": "Battle of Front Royal", "longitude": -78.1923, "latitude": 38.936, "start_time": 18620523, "end_time": 18620523, "links": ["https://en.wikipedia.org/wiki/Battle_of_Front_Royal"]}, {"title": "Battle of Meridian", "longitude": -88.7043, "latitude": 32.3654, "start_time": 18640214, "end_time": 18640220, "links": ["https://en.wikipedia.org/wiki/Meridian_Campaign"]}, {"title": "Battle of Saint John's Bluff", "longitude": -81.4998, "latitude": 30.3852, "start_time": 18621001, "end_time": 18621003, "links": ["https://en.wikipedia.org/wiki/Battle_of_St._Johns_Bluff"]}, {"title": "Battle of Bryn Glas", "longitude": -3.09703, "latitude": 52.30681, "start_time": 14020701, "end_time": 14020701, "links": ["https://en.wikipedia.org/wiki/Battle_of_Bryn_Glas"]}, {"title": "Battle of Camp Wildcat", "longitude": -84.1996, "latitude": 37.2634, "start_time": 18611021, "end_time": 18611021, "links": ["https://en.wikipedia.org/wiki/Battle_of_Camp_Wildcat"]}, {"title": "Battle of Santa Clara", "longitude": -79.954167, "latitude": 22.405278, "start_time": 19581228, "end_time": 19590101, "links": ["https://en.wikipedia.org/wiki/Battle_of_Santa_Clara"]}, {"title": "Battle of the Willows", "longitude": 27.5833, "latitude": 43.2167, "start_time": 3770101, "end_time": 3770101, "links": ["https://en.wikipedia.org/wiki/Battle_of_the_Willows"]}, {"title": "Siege of Constantinople", "longitude": 28.9769, "latitude": 41.0167, "start_time": 12600101, "end_time": 12600101, "links": ["https://en.wikipedia.org/wiki/Siege_of_Constantinople_(1260)"]}, {"title": "Battle of Simmon's Bluff", "longitude": -80.22805556, "latitude": 32.69527778, "start_time": 18620621, "end_time": 18620621, "links": ["https://en.wikipedia.org/wiki/Battle_of_Simmon%27s_Bluff"]}, {"title": "Battle of Big Black River Bridge", "longitude": -90.7043, "latitude": 32.3471, "start_time": 18630517, "end_time": 18630517, "links": ["https://en.wikipedia.org/wiki/Battle_of_Big_Black_River_Bridge"]}, {"title": "Battle of Sutherland's Station", "longitude": -77.5625, "latitude": 37.1975, "start_time": 18650402, "end_time": 18650402, "links": ["https://en.wikipedia.org/wiki/Battle_of_Sutherland%27s_Station"]}, {"title": "Zweite_Schlacht_von_Bedriacum", "longitude": 10.13, "latitude": 45.08, "start_time": 691023, "end_time": 691024, "links": ["https://de.wikipedia.org/wiki/Zweite_Schlacht_von_Bedriacum"]}, {"title": "Battle of Lewes", "longitude": -0.013888888, "latitude": 50.878611111, "start_time": 12640514, "end_time": 12640514, "links": ["https://en.wikipedia.org/wiki/Battle_of_Lewes"]}, {"title": "Sand Creek massacre", "longitude": -102.50635, "latitude": 38.547708333, "start_time": 18641129, "end_time": 18641129, "links": ["https://en.wikipedia.org/wiki/Sand_Creek_massacre"]}, {"title": "Battle of Stoney Creek", "longitude": -79.764344, "latitude": 43.218493, "start_time": 18130606, "end_time": 18130606, "links": ["https://en.wikipedia.org/wiki/Battle_of_Stoney_Creek"]}, {"title": "Battle of Megalopolis", "longitude": 22.1422, "latitude": 37.4011, "start_time": -3299899, "end_time": -3299899, "links": ["https://en.wikipedia.org/wiki/Battle_of_Megalopolis"]}, {"title": "Battle of Prague (1757)", "longitude": 14.4204598, "latitude": 50.0878114, "start_time": 17570506, "end_time": 17570506, "links": ["https://en.wikipedia.org/wiki/Battle_of_Prague_(1757)"]}, {"title": "Battle of Friedland", "longitude": 21.016666666, "latitude": 54.45, "start_time": 18070614, "end_time": 18070614, "links": ["https://en.wikipedia.org/wiki/Battle_of_Friedland"]}, {"title": "Battle of Caporetto", "longitude": 13.6425, "latitude": 46.214444444, "start_time": 19171024, "end_time": 19171112, "links": ["https://en.wikipedia.org/wiki/Battle_of_Caporetto"]}, {"title": "Battle of Abritus", "longitude": 26.54, "latitude": 43.51, "start_time": 2510101, "end_time": 2510101, "links": ["https://en.wikipedia.org/wiki/Battle_of_Abritus"]}, {"title": "Schlacht_auf_dem_W%C3%BClferichskamp", "longitude": 7.48416667, "latitude": 51.585, "start_time": 12541016, "end_time": 12541016, "links": ["https://de.wikipedia.org/wiki/Schlacht_auf_dem_W%C3%BClferichskamp"]}, {"title": "Battle of Delium", "longitude": 23.6492, "latitude": 38.3481, "start_time": -4229899, "end_time": -4229899, "links": ["https://en.wikipedia.org/wiki/Battle_of_Delium"]}, {"title": "Bataille_de_Nouy", "longitude": 0.880884, "latitude": 47.371, "start_time": 10440828, "end_time": 10440828, "links": ["https://fr.wikipedia.org/wiki/Bataille_de_Nouy"]}, {"title": "Battle of Cajamarca", "longitude": -78.51055556, "latitude": -7.16444444, "start_time": 15321116, "end_time": 15321116, "links": ["https://en.wikipedia.org/wiki/Battle_of_Cajamarca"]}, {"title": "Operation Iskra", "longitude": 31.067, "latitude": 59.9, "start_time": 19430112, "end_time": 19430130, "links": ["https://en.wikipedia.org/wiki/Operation_Iskra"]}, {"title": "Second Battle of Chlumec", "longitude": 13.93333333, "latitude": 50.66666667, "start_time": 11260225, "end_time": 11260225, "links": ["https://en.wikipedia.org/wiki/Battle_of_Chlumec"]}, {"title": "Battle of Chaeronea", "longitude": 22.864, "latitude": 38.501, "start_time": -849899, "end_time": -849899, "links": ["https://en.wikipedia.org/wiki/Battle_of_Chaeronea_(86_BC)"]}, {"title": "Battle of Lacolle Mills", "longitude": -73.343809, "latitude": 45.067564, "start_time": 18140330, "end_time": 18140330, "links": ["https://en.wikipedia.org/wiki/Battle_of_Lacolle_Mills_(1814)"]}, {"title": "Second Battle of Corinth", "longitude": -88.52173, "latitude": 34.97095, "start_time": 18621003, "end_time": 18621004, "links": ["https://en.wikipedia.org/wiki/Second_Battle_of_Corinth"]}, {"title": "Zweite_Schlacht_von_Beneventum", "longitude": 14.7780556, "latitude": 41.1311111, "start_time": -2109899, "end_time": -2109899, "links": ["https://de.wikipedia.org/wiki/Zweite_Schlacht_von_Beneventum"]}, {"title": "battle of Capua (211 BC)", "longitude": 14.25, "latitude": 41.0833333, "start_time": -2099899, "end_time": -2099899, "links": ["https://en.wikipedia.org/wiki/Battle_of_Capua_(211_BC)"]}, {"title": "Battle of Ain Jalut", "longitude": 35.2417, "latitude": 32.5964, "start_time": 12600910, "end_time": 12600910, "links": ["https://en.wikipedia.org/wiki/Battle_of_Ain_Jalut"]}, {"title": "Battle of Kassel", "longitude": 9.43222222, "latitude": 51.28916667, "start_time": 19450401, "end_time": 19450404, "links": ["https://en.wikipedia.org/wiki/Battle_of_Kassel_(1945)"]}, {"title": "Battle of Palermo", "longitude": 13.36667, "latitude": 38.11667, "start_time": 16760602, "end_time": 16760602, "links": ["https://en.wikipedia.org/wiki/Battle_of_Palermo"]}, {"title": "Battle of Antietam", "longitude": -77.7447, "latitude": 39.4732, "start_time": 18620917, "end_time": 18620917, "links": ["https://en.wikipedia.org/wiki/Battle_of_Antietam"]}, {"title": "Operation Ostra Brama", "longitude": 25.3167, "latitude": 54.6833, "start_time": 19440707, "end_time": 19440715, "links": ["https://en.wikipedia.org/wiki/Operation_Ostra_Brama"]}, {"title": "Battle of Nancy", "longitude": 6.18444, "latitude": 48.6933, "start_time": 19440905, "end_time": 19440915, "links": ["https://en.wikipedia.org/wiki/Battle_of_Nancy_(1944)"]},